_id,FACILITY_ID,FACILITY_NAME,FA_ADDRESS_GIVEN,FA_POSTAL_CODE,FA_LAT,FA_LON,NAICS_CODE_6,NAICS_CODE_6_DESC_ENG,EMPLOYEE_COUNT,WEB_SITE,PC_FULL_NAME,PHONE_NO,PC_JOB_TITLE,PC_PHONE_NO,PC_PHONE_NO_EXT,PC_FAX_NO,CHEMICAL_ID,CHEMICAL_NAME,USE_MANUFACTURED,USE_PROCESSED,USE_OTHER_USE,REL_AIR,REL_LAND,REL_WATER,REL_DISPOSAL,REL_RECYCLING
1,15400,A J Lemik,66 Penn Dr,M9L 2A9,43.7535,-79.5578,333519,Other Metalworking Machinery Mfg.,4,,Angela Mariotti,416-322-3455,Accounting&#x2F;Bookkeeping,416-744-0021,,,18,Nickel and its compounds,0,42,0,0,0,0,0,0
2,21937,Ashford Cleaners,535 Eglinton Ave West,M5N 1B1,43.7034,-79.4142,812320,Dry Cleaning & Laundry Serv. (exc. Coin-Op.),22,,Lucaino Accardi,416-322-3127,Manager,416-322-3127,,,25,Volatile Organic Compounds (VOCs) Total,5,0,427,99,0,0,0,0
3,21950,Amvic Inc,501 McNicoll Avenue,M2H 2E2,43.8038,-79.34,325210,Resin & Synthetic Rubber Mfg.,120,,Vinod Kanwar,416-410-5674,VPOperations,416-410-5674,,416-759-7402,25,Volatile Organic Compounds (VOCs) Total,150,0,111891,112041,0,0,0,0
4,22139,Mecon Industries Limited,17 Malley Rd,M1L 2E4,43.7208,-79.2832,339990,All Other Miscellaneous Mfg.,20,,David Foscarini,416-751-1901,President,416-751-1901,,416-751-6603,25,Volatile Organic Compounds (VOCs) Total,0,0,139,139,0,0,0,0
5,22518,McCowan Design and Manufacturing,1760 Birchmount Road,M1P 2H7,43.7636,-79.2914,331221,Cold-Rolled Steel Shape Mfg.,50,,James Chabot,416-291-7111,Operations Manager,416-291-7111,,,16,Manganese and its compounds,0,1961,0,0,0,0,0,0
6,22519,Ocean Food Company,3 Turbina Avenue,M1V 5G3,43.827,-79.2505,311710,Seafood Product Preparation & Packaging,35,,Daniel Leung,416-285-6487,Director Of Sales,416-285-6487,,,25,Volatile Organic Compounds (VOCs) Total,12,0,0,0,0,0,0,0
7,22870,Fiba Canning Inc,2651 Markham Rd,M1X 1M4,43.8188,-79.2454,336212,Truck Trailer Mfg.,30,,Michael Canning,416-299-1142,Operations Manager,416-299-1142,,416-299-0349,25,Volatile Organic Compounds (VOCs) Total,2186,1766,420,1766,0,0,0,0
8,22891,Mariani Metal Fabricators Limited,263 Carrier Drive,M9W 5Y8,43.7509,-79.6141,332999,All Other Misc. Fabricated Metal Product Mfg.,66,,Venkat Ramaraju,416-798-2969,CFO,416-798-2969,,,18,Nickel and its compounds,0,3922,0,0,0,0,0,0
9,22922,City Of Toronto F J Horgan Water Treatment Plant,201 Copperfield Road,M1E 5G7,43.7631,-79.1565,221310,Water Supply & Irrigation Systems,30,,Ian Chin,416-392-2883,Water Treatment Plant Manager F,416-392-2572,,416-397-4974,25,Volatile Organic Compounds (VOCs) Total,619,0,0,619,0,0,0,0
10,22944,Siltech Corporation,225 Wicksteed Ave,M4H 1G5,43.7132,-79.3474,325190,Other Basic Organic Chemical Mfg.,51,,James Tellerd,416-424-4567,Operations Manager,416-424-4567,,,23,Nitrogen Oxides (NOx),745,0,0,745,0,0,0,0
11,23014,Weston MB Collision Ltd,108 Toryork Drive,M9L 1X6,43.7563,-79.5506,811121,"Automotive Body, Paint & Interior R&M",46,,Gaylene Walters,416-740-8790,Book Keeper,416-740-8790,,,24,Particulate Matter 2.5 (PM2.5),451,0,0,5,0,0,0,0
12,23033,Blue Bonnet Cleaners,1379 Wilson Ave,M3M 1H7,43.7229,-79.4985,812320,Dry Cleaning & Laundry Serv. (exc. Coin-Op.),5,,Sam Scimemi,416-249-4331,Owner,416-249-4331,,,19,Tetrachloroethylene (Perchloroethylene),0,0,590,308,0,0,0,0
13,23054,KIK Operating Partnership,2000 Kipling Avenue,M9W 4J6,43.71,-79.5659,325610,Soap & Cleaning Compound Mfg.,298,,Kimberly Clark,416-740-7400,Manager Of EHS,416-740-7400,,,25,Volatile Organic Compounds (VOCs) Total,0,33734,0,733,0,0,0,0
14,23073,Canadian Linen Uniform Service Co,75 Norfinch Drive,M3N 1W8,43.7596,-79.5289,812330,Linen & Uniform Supply,130,,Andrew Steiner,416-849-5100,Sr VP Of Canadian Operations,416-354-3100,,,25,Volatile Organic Compounds (VOCs) Total,153,0,0,153,0,0,0,0
15,23147,Cintas Canada limited,3370 Dundas Street West,M6S 2S1,43.6656,-79.4832,812330,Linen & Uniform Supply,161,,Michael Labocha,416-763-4400,Env Engineer,647-468-7025,,,25,Volatile Organic Compounds (VOCs) Total,66,0,2136,2018,0,0,0,0
16,23174,Kilian Canada ULC,75 Torlake Crescent,M8Z 1B7,43.613,-79.5269,332991,Ball & Roller Bearing Mfg.,40,,Wolney Rodrigues,416-252-5936,Plant Manager,289-806-6579,,,9,"Chromium, Non-Hexavalent and its compounds",0,1622,0,0,0,0,0,0
17,23186,Platis Custom 1 Hr Cleaners,16 Yonge St,M5E 2A1,43.6434,-79.3755,812320,Dry Cleaning & Laundry Serv. (exc. Coin-Op.),3,,Bloomin Maraj,416-324-8980,Owner,416-324-8980,,,19,Tetrachloroethylene (Perchloroethylene),0,0,1255,423,0,0,0,0
18,23278,Avenue Collision Inc,293 MacPherson Ave,M4V 1A4,43.6771,-79.4017,811121,"Automotive Body, Paint & Interior R&M",12,,Enzo Armata,416-923-8031,Controller,416-259-6344,,416-259-6344,23,Nitrogen Oxides (NOx),110,0,0,104,0,0,0,0
19,23302,Apotex 400 Ormont,400  Ormont Drive,M9L 1N9,43.7654,-79.5427,325410,Pharmaceutical & Medicine Mfg.,51,,Michael Taniguchi,416-749-9300,Associate Director EHS Programs,647-262-6903,,,25,Volatile Organic Compounds (VOCs) Total,335,0,0,335,0,0,0,0
20,23321,Assured Scarborough West,20 Continental Place,M1R 2T4,43.7637,-79.3004,811121,"Automotive Body, Paint & Interior R&M",19,,Kim Miller,416-751-1102,Director Env Health and Safety,877-743-7237,,,25,Volatile Organic Compounds (VOCs) Total,0,0,154,154,0,0,0,0
21,23338,Network Materials  Resources Inc,31 Golden Gate Court,M1P 3A4,43.7714,-79.2642,562210,Waste Treatment & Disposal,1,,Mike Aston,416-299-0116,General Manager,416-299-0116,,416-299-9649,18,Nickel and its compounds,0,10456,0,0,0,0,0,0
22,23366,Woodbridge Collision,1927 Albion Rd,M9W 5S8,43.7466,-79.6205,811121,"Automotive Body, Paint & Interior R&M",5,,Erasmo Ciufo,416-675-6332,Manager,416-675-6332,,416-675-7468,24,Particulate Matter 2.5 (PM2.5),421,0,0,421,0,0,0,0
23,23473,Martino Brothers Airport Company,606 Dixon Road,M9W 1J1,43.6912,-79.5732,811121,"Automotive Body, Paint & Interior R&M",12,,Vince Martino,416-248-5211,President,416-248-5211,,416-235-1875,24,Particulate Matter 2.5 (PM2.5),126,0,0,126,0,0,0,0
24,23501,Academy Auto Collision,2207 Jane Street,M3M 1A5,43.7231,-79.5091,811121,"Automotive Body, Paint & Interior R&M",4,,Mark Bonacci,416-247-7821,President,416-247-7821,,416-247-7825,24,Particulate Matter 2.5 (PM2.5),126,0,0,19,0,0,0,0
25,23501,Academy Auto Collision,2207 Jane Street,M3M 1A5,43.7231,-79.5091,811121,"Automotive Body, Paint & Interior R&M",4,,Mark Bonacci,416-247-7821,President,416-247-7821,,416-247-7825,25,Volatile Organic Compounds (VOCs) Total,0,0,217,193,0,0,0,0
26,23509,Venture Steel Inc,60 Disco Rd,M9W 1L9,43.7016,-79.5935,331221,Cold-Rolled Steel Shape Mfg.,200,,Claudio Cortina,416-798-9396,VP Of Operations,416-798-9396,345,416-798-9832,25,Volatile Organic Compounds (VOCs) Total,0,0,202,202,0,0,0,0
27,23514,SC Electric Canada Ltd,90 Belfield Road,M9W 1G4,43.703,-79.5713,335315,"Switchgear, Relay & Industrial Control Mfg.",360,,Laura Cudizio,416-249-9171,Manager Health Safety Envt,416-249-9171,3288,,9,"Chromium, Non-Hexavalent and its compounds",0,18573,0,0,0,0,0,0
28,23526,Tradition Fine Foods Ltd,663 Warden Avenue,M1L 3Z5,43.703,-79.2772,311814,Commercial Bakeries & Frozen Product Mfg.,396,,Pranav Phadke,416-444-4777,Facility Maintenance Manager,416-444-4777,,,23,Nitrogen Oxides (NOx),800,0,0,800,0,0,0,0
29,23551,Western Collision,500 Garyray Drive,M9L 1P8,43.7667,-79.5507,811121,"Automotive Body, Paint & Interior R&M",5,,Carlo Polsinelli,416-749-5200,President,416-749-5200,,416-749-8119,25,Volatile Organic Compounds (VOCs) Total,0,0,278,254,0,0,0,0
30,23569,Mondelez Canada Inc Gladstone Plant,277 Gladstone Avenue,M6J 3L9,43.6515,-79.4305,311330,Confectionery Mfg. from Purchased Chocolate,420,,Omar A Awam,416-530-4055,HSE Manager,437-332-2349,,,24,Particulate Matter 2.5 (PM2.5),972,0,0,972,0,0,0,0
31,23569,Mondelez Canada Inc Gladstone Plant,277 Gladstone Avenue,M6J 3L9,43.6515,-79.4305,311330,Confectionery Mfg. from Purchased Chocolate,420,,Omar A Awam,416-530-4055,HSE Manager,437-332-2349,,,23,Nitrogen Oxides (NOx),3584,0,0,3584,0,0,0,0
32,23569,Mondelez Canada Inc Gladstone Plant,277 Gladstone Avenue,M6J 3L9,43.6515,-79.4305,311330,Confectionery Mfg. from Purchased Chocolate,420,,Omar A Awam,416-530-4055,HSE Manager,437-332-2349,,,25,Volatile Organic Compounds (VOCs) Total,490,1577,0,1400,0,0,0,0
33,23715,Upper Crust Ltd,55 Canarctic Dr,M3J 2N7 ,43.7752,-79.4916,311225,Fat & Oil Refining & Blending,108,,Yuri Kapustin,416-891-7229,Plant manager,416-891-7229,,,23,Nitrogen Oxides (NOx),436,0,0,436,0,0,0,0
34,23827,Bohne Spring Industries Limited,60 Coronet Road,M8Z 2M1,43.6231,-79.5481,332611,Spring (Heavy Gauge) Mfg.,43,,Murray Decaire,416-231-9000,Controller,416-231-9000,,,24,Particulate Matter 2.5 (PM2.5),51,0,0,0,0,0,0,0
35,23836,Wing's Food Products,550 Kipling Avenue,M8Z 5E9,43.6146,-79.5238,311990,All Other Food Mfg.,30,,Norel Covaci,416-259-0202,Sr Eng Manager,416-259-0202,,416-792-3183,24,Particulate Matter 2.5 (PM2.5),86,0,0,86,0,0,0,0
36,23905,Owens Corning Insulating Systems Canada LP,3450 McNicoll Avenue,M1V 1Z5,43.8216,-79.2591,327990,All Other Non-Metallic Mineral Product Mfg.,140,,Jacquelyn Desloges,416-412-8362,Environmental Leader,416-412-8362,,,24,Particulate Matter 2.5 (PM2.5),79413,0,0,79413,0,0,0,0
37,23905,Owens Corning Insulating Systems Canada LP,3450 McNicoll Avenue,M1V 1Z5,43.8216,-79.2591,327990,All Other Non-Metallic Mineral Product Mfg.,140,,Jacquelyn Desloges,416-412-8362,Environmental Leader,416-412-8362,,,23,Nitrogen Oxides (NOx),9928,0,0,9928,0,0,0,0
38,23905,Owens Corning Insulating Systems Canada LP,3450 McNicoll Avenue,M1V 1Z5,43.8216,-79.2591,327990,All Other Non-Metallic Mineral Product Mfg.,140,,Jacquelyn Desloges,416-412-8362,Environmental Leader,416-412-8362,,,9,"Chromium, Non-Hexavalent and its compounds",0,61239,0,40,0,0,0,0
39,23905,Owens Corning Insulating Systems Canada LP,3450 McNicoll Avenue,M1V 1Z5,43.8216,-79.2591,327990,All Other Non-Metallic Mineral Product Mfg.,140,,Jacquelyn Desloges,416-412-8362,Environmental Leader,416-412-8362,,,25,Volatile Organic Compounds (VOCs) Total,15483,10326,0,25809,0,0,0,0
40,23952,Torcad Limited,275 Norseman Street,M8Z 2R5,43.6322,-79.5279,332810,"Coating, Engraving & Heat Treating Activities",51,,Darren Webber,416-239-3928,Plant Manager,416-239-3928,,416-239-0049,24,Particulate Matter 2.5 (PM2.5),149,0,0,149,0,0,0,0
41,23952,Torcad Limited,275 Norseman Street,M8Z 2R5,43.6322,-79.5279,332810,"Coating, Engraving & Heat Treating Activities",51,,Darren Webber,416-239-3928,Plant Manager,416-239-3928,,416-239-0049,8,"Chromium, Hexavalent and its compounds",0,1456,0,0,0,0,0,0
42,23952,Torcad Limited,275 Norseman Street,M8Z 2R5,43.6322,-79.5279,332810,"Coating, Engraving & Heat Treating Activities",51,,Darren Webber,416-239-3928,Plant Manager,416-239-3928,,416-239-0049,25,Volatile Organic Compounds (VOCs) Total,0,3595,0,3595,0,0,0,0
43,23954,Acadian Platers CoLtd,315 Rexdale Blvd,M9W 1R8,43.7143,-79.5832,332810,"Coating, Engraving & Heat Treating Activities",30,,Karanjot Kang,416-743-7130,Corp Manager Quality Environment,905-564-1711,,905-564-2819,23,Nitrogen Oxides (NOx),1012,0,0,0,0,0,0,0
44,23980,Pleasant Manufacturing Co Ltd,37 Baywood Road,M9V 3Y8,43.7467,-79.606,332720,"Turned Product & Screw, Nut & Bolt Mfg.",13,,Terra Hobart,416-745-8570,Office Admin,416-745-8570,,,25,Volatile Organic Compounds (VOCs) Total,0,0,401,0,0,0,0,0
45,23990,Durapaint Industries Limited,247 Finchdene Square,M1X 1B9,43.8211,-79.2348,232990,All Other Special Trade Contracting,84,,Domenic Zarlenga,416-754-3664,Vice President,416-743-3664,,,25,Volatile Organic Compounds (VOCs) Total,140,29577,0,29698,0,0,0,0
46,24058,Deco Automotive,225 Claireville Drive,M9W 6K9,43.7458,-79.6256,332118,Stamping,566,,Hena Alam,416-674-5598,Coordinator HSE,416-674-5598,2150,,23,Nitrogen Oxides (NOx),409,0,0,409,0,0,0,0
47,42,Viasystems Toronto Inc A Member Company Of TTM Technologies Group,8150 Sheppard Avenue East,M1B 5K2,43.8027,-79.1969,334410,Semiconductor & Electronic Component Mfg.,550,,Mark Scruton,416-208-2100,Director Of EHS AMII BU,416-453-1594,,416-208-2193,23,Nitrogen Oxides (NOx),505,0,0,505,0,0,0,0
48,57,Material Sciences Corporation Continuous Colour Coat Ltd,1430 Martin Grove Road,M9W 4Y1,43.7169,-79.5826,332810,"Coating, Engraving & Heat Treating Activities",108,,Marika Toyama,416-743-7980,Environmental Engineer,416-743-7980,,416-743-5980,18,Nickel and its compounds,0,2573,0,0,0,0,0,0
49,90,Cosmetica Laboratories Inc,1960 Eglinton Ave East,M1L 2M5,43.7281,-79.2867,325620,Toilet Preparation Mfg.,500,,Jeff Adamson,416-615-2400,Senior Manager,795-796-3558,,,25,Volatile Organic Compounds (VOCs) Total,0,1439,0,1439,0,0,0,0
50,163,AEP Canada Inc,595 Coronation Drive,M1E 2K4,43.7657,-79.1622,326114,Plastic Film and Sheet Manufacturing,88,,John Gibula,416-281-6000,Plant Manager,647-436-3508,,,24,Particulate Matter 2.5 (PM2.5),911,0,0,911,0,0,0,0
51,177,The Incredible Printing Company,30 St Regis Cr N,M3J 1Z2,43.7561,-79.4853,323119,Other Printing,40,,Pauline Schwartz,416-630-5200,CFO,416-630-5200,,,25,Volatile Organic Compounds (VOCs) Total,0,0,849,376,0,0,0,0
52,192,Blanco Canada Incorporated,37 Jutland Road,M8Z 2G6,43.6277,-79.5227,326191,Plastic Plumbing Fixture Mfg.,120,,Lars Schwenteck,416-251-4733,Senior VicePresident,416-251-4733,,416-251-0217,24,Particulate Matter 2.5 (PM2.5),91,0,0,91,0,0,0,0
53,195,Vintage Hardwood Flooring,409 Evans Avenue,M8Z 1K8,43.6152,-79.5287,321211,Hardwood Veneer & Plywood Mills,75,,Phil Kavanagh,416-521-6108,Director Imports,416-521-6104,,,16,Manganese and its compounds,0,10,0,0,0,0,0,0
54,195,Vintage Hardwood Flooring,409 Evans Avenue,M8Z 1K8,43.6152,-79.5287,321211,Hardwood Veneer & Plywood Mills,75,,Phil Kavanagh,416-521-6108,Director Imports,416-521-6104,,,25,Volatile Organic Compounds (VOCs) Total,13,2101,0,2113,0,0,0,0
55,202,University Of Toronto Central Steam Plant,17 Russell Street,M5S 3B1,43.6602,-79.3979,611310,Universities,10,,Matthew White,416-978-5087,Environmental Air Compliance,416-978-5087,,,23,Nitrogen Oxides (NOx),53712,0,0,53712,0,0,0,0
56,24077,Canadian Feed Screws,80 Venture Dr,M1B 3L6,43.8064,-79.1989,332710,Machine Shops,30,,John Vasilev,416-284-8880,President,416-284-8880,,,8,"Chromium, Hexavalent and its compounds",0,62,0,0,0,0,0,0
57,24093,Progressive Anodizers Inc,41 Crockford Blvd,M1R 3B7,43.7385,-79.2878,332999,All Other Misc. Fabricated Metal Product Mfg.,60,,Philip Leal,416-751-5487,EHS Manager,416-751-5487,,,23,Nitrogen Oxides (NOx),1063,0,0,1063,0,0,0,0
58,24105,L&M Precision Products Inc.,150 Milvan Drive,M9L 1Z9,43.7573,-79.563,332720,"Turned Product & Screw, Nut & Bolt Mfg.",53,,Ed Grandy,416-741-0700,Senior Process Engineer,416-741-0700,230,416-741-5287,18,Nickel and its compounds,0,451,0,0,0,0,0,0
59,24128,Atlantic Packaging 111 Progress Avenue,111 Progress Avenue,M1P 2Y9,43.7714,-79.2764,322130,Paperboard Mills,457,,Fatima Correia,416-298-8101,Environmental Manager,416-298-5431,,416-297-2292,25,Volatile Organic Compounds (VOCs) Total,2404,0,2643,5047,0,0,0,0
60,24129,New Forest Paper Mills LP,333 Progress Avenue,M1P 2Z7,43.7745,-79.2662,322130,Paperboard Mills,94,,Fatima Correia,416-298-8101,Environmental Manager,416-298-5431,,416-297-2292,25,Volatile Organic Compounds (VOCs) Total,2703,0,1856,1591,0,0,0,0
61,24141,SAN Steel Fabricating Ltd,250 Sparks Avenue,M2H 2S4,43.8083,-79.3396,333519,Other Metalworking Machinery Mfg.,22,,Casper Hindson,416-285-7744,Plant Manager,416-285-7744,,,24,Particulate Matter 2.5 (PM2.5),506,0,0,506,0,0,0,0
62,24141,SAN Steel Fabricating Ltd,250 Sparks Avenue,M2H 2S4,43.8083,-79.3396,333519,Other Metalworking Machinery Mfg.,22,,Casper Hindson,416-285-7744,Plant Manager,416-285-7744,,,16,Manganese and its compounds,0,554,0,0,0,0,0,0
63,24147,Ontario Redimix Etobicoke,21 Goodmark Place,M9W 6P9,43.7534,-79.6166,327320,Ready-Mix Concrete Mfg.,63,,Maria Topalovic,416-213-5246,Environmental Manager,647-924-5501,,,23,Nitrogen Oxides (NOx),373,0,0,373,0,0,0,0
64,216,Club Coffee LP,65 Carrier Drive,M9W 5V9,43.7381,-79.6096,311920,Coffee & Tea Mfg.,178,,Wing Torres,416-675-1300,EHS Manager,416-675-1300,,,24,Particulate Matter 2.5 (PM2.5),11,1329,0,1340,0,0,0,0
65,225,Henry Company Canada Inc Scarborough,15 Wallsend Drive,M1E 3X6,43.7621,-79.1664,325999,All Other Misc. Chemical Product Mfg.,50,,Todd Thertell,416-724-2000,Plant Manager,647-560-7259,,,23,Nitrogen Oxides (NOx),371,0,0,371,0,0,0,0
66,225,Henry Company Canada Inc Scarborough,15 Wallsend Drive,M1E 3X6,43.7621,-79.1664,325999,All Other Misc. Chemical Product Mfg.,50,,Todd Thertell,416-724-2000,Plant Manager,647-560-7259,,,25,Volatile Organic Compounds (VOCs) Total,19,228755,0,576,0,0,0,0
67,240,Colour Innovations Print Inc,161 Norfinch Dr,M3N 1Y2,43.7655,-79.5302,323119,Other Printing,45,,Ada Geronimo,416-663-6703,Controller,416-663-6703,,,25,Volatile Organic Compounds (VOCs) Total,0,0,10888,5752,0,0,0,0
68,275,Toronto Research Chemicals,2 Brisbane Road,M3J 2J8,43.7739,-79.4707,325410,Pharmaceutical & Medicine Mfg.,150,,Andrew Karagias,416-665-9696,Corporate Project Manager,416-665-9696,,,23,Nitrogen Oxides (NOx),1700,0,0,1700,0,0,0,0
69,277,Polafemet,129 Milvan Dr,M9L 1Z8,43.7567,-79.5613,332329,Other Ornamental & Architec. Metal Prod. Mfg.,6,,Oleg Kriachkov,416-748-6983,Estimator,416-748-6983,,,18,Nickel and its compounds,0,763,0,0,0,0,0,0
70,277,Polafemet,129 Milvan Dr,M9L 1Z8,43.7567,-79.5613,332329,Other Ornamental & Architec. Metal Prod. Mfg.,6,,Oleg Kriachkov,416-748-6983,Estimator,416-748-6983,,,9,"Chromium, Non-Hexavalent and its compounds",0,1449,0,0,0,0,0,0
71,285,RPM Canada Company Tremco Canada Division,220 Wicksteed Ave,M4H 1G7,43.7133,-79.3473,325510,Paint & Coating Mfg.,225,,Nawid Bakhshi,416-467-2447,Environmental Coordinator,416-467-2447,,416-467-2452,25,Volatile Organic Compounds (VOCs) Total,981,830385,236303,12987,0,0,0,0
72,24173,Yarlmetal Fabrications Inc,40 Dynamic Drive,M1V 2W2,43.8178,-79.2482,332329,Other Ornamental & Architec. Metal Prod. Mfg.,30,,Dhimo Lad,416-297-9013,HR Coordinator,416-297-9013,,,15,Lead and its compounds,0,278,0,0,0,0,0,0
73,24173,Yarlmetal Fabrications Inc,40 Dynamic Drive,M1V 2W2,43.8178,-79.2482,332329,Other Ornamental & Architec. Metal Prod. Mfg.,30,,Dhimo Lad,416-297-9013,HR Coordinator,416-297-9013,,,8,"Chromium, Hexavalent and its compounds",0,1570,0,0,0,0,0,0
74,24185,M M Plating Inc,100 Barbados Blvd,M1J 1K9,43.7357,-79.2403,332810,"Coating, Engraving & Heat Treating Activities",28,,Jerry Mazor,416-267-5811,President,416-267-5811,,,18,Nickel and its compounds,0,164,0,33,0,0,0,0
75,24185,M M Plating Inc,100 Barbados Blvd,M1J 1K9,43.7357,-79.2403,332810,"Coating, Engraving & Heat Treating Activities",28,,Jerry Mazor,416-267-5811,President,416-267-5811,,,5,Cadmium and its compounds,0,23,0,0,0,0,0,0
76,24222,Crown Metal Packaging Canada LP Weston Plant,21 Fenmar Drive,M9L 2Y9,43.7591,-79.5359,332431,Metal Can Mfg.,190,,Maria Paula Gomez,416-741-6002,EHS Coordinator,437-318-8031,,,16,Manganese and its compounds,0,269601,0,0,0,0,0,0
77,24237,TS Tech Trimont Mfg Inc,115 Milner Avenue,M1S 4L7,43.7848,-79.248,336360,Motor Vehicle Seating and Interior Trim Mfg.,264,,Flora Ganuelas,416-640-2045,Manager HR  Admin,416-640-2045,,416-847-3935,25,Volatile Organic Compounds (VOCs) Total,0,0,14364,9503,0,0,0,0
78,302,Mondelez Canada Inc,40 Bertrand Ave,M1L 2P6,43.7344,-79.2836,311340,Non-Chocolate Confectionery Mfg.,185,,Andrew Gan,416-689-6645,HSE Manager,647-962-5906,,,24,Particulate Matter 2.5 (PM2.5),168,0,0,168,0,0,0,0
79,311,Lampshades Unlimited,2721 Markham Road,M1X 1L5,43.8205,-79.2462,337920,Blind & Shade Mfg.,6,,Mo Lo,416-299-3113,Manager,416-299-3113,,,25,Volatile Organic Compounds (VOCs) Total,0,0,524,524,0,0,0,0
80,315,Apotex Etobicoke,50 Steinway Boulevard,M9W 6Y3,43.7504,-79.6244,325410,Pharmaceutical & Medicine Mfg.,883,,Michael Taniguchi,416-675-0338,Associate Director EHS Programs,647-262-6903,,,13,Dichloromethane (Methylene chloride),0,0,3361,3361,0,0,0,0
81,321,Apotex Special Products Facility,285 Garyray Drive,M9L 1P3,43.769,-79.5394,325410,Pharmaceutical & Medicine Mfg.,24,,Michael Taniguchi,416-749-9300,Associate Director EHS Programs,647-262-6903,,,23,Nitrogen Oxides (NOx),1648,0,0,1648,0,0,0,0
82,348,Profile Industries Limited,201 Garyray Drive,M9L 2T2,43.7694,-79.5375,337214,Office Furniture (except Wood) Mfg.,135,,Harpal Banwait,416-748-2505,,416-748-2505,,,14,Formaldehyde,0,78,0,0,0,0,0,0
83,360,Molson Coors Canada,1 Carlingview Drive,M9W 5E5,43.674,-79.5897,312120,Breweries,621,,Tan Le,416-571-8917,General Manager,416-688-1898,,,23,Nitrogen Oxides (NOx),14016,0,0,14016,0,0,0,0
84,361,Walton Street Steam Plant,95 Walton Street,M5G 1H9,43.6579,-79.3855,221330,Steam & Air-Conditioning Supply,12,,Phoebe Rezkalla,416-392-6845,HS Manager,647-962-0241,,,24,Particulate Matter 2.5 (PM2.5),1492,0,0,1492,0,0,0,0
85,24261,Metaplast Circuits Limited,180 Hymus Road,M1L 2E1,43.7205,-79.2802,335990,All Other Electrical Equip. & Component Mfg.,58,,John Mikelsons,416-285-5000,VP Operations,416-285-5000,,416-755-0121,14,Formaldehyde,0,233,0,233,0,0,0,0
86,24300,Production Paint Stripping Limited,11 McLachlan Dr,M9W 1E3,43.6936,-79.5863,332810,"Coating, Engraving & Heat Treating Activities",30,,Kyle Jackson,416-675-1265,General Manager,647-462-1206,,,23,Nitrogen Oxides (NOx),1260,0,0,1260,0,0,0,0
87,24352,M  S Auto Refinishing,1293 Queen Street,M4L 1C2,43.6637,-79.3283,811121,"Automotive Body, Paint & Interior R&M",5,,Andy Marcozzi,416-461-5898,Secretary,416-651-5898,,416-461-6890,24,Particulate Matter 2.5 (PM2.5),505,0,0,25,0,0,0,0
88,362,Pearl Street Steam Plant,120 Pearl Street,M5H 1L2,43.6481,-79.386,221330,Steam & Air-Conditioning Supply,13,,Phoebe Rezkalla,416-392-6847,HS Manager,647-962-0241,,,25,Volatile Organic Compounds (VOCs) Total,5569,0,0,5569,0,0,0,0
89,363,Lincoln Electric Company Of Canada,179 Wicksteed Avenue,M4G 2B9,43.712,-79.3547,332999,All Other Misc. Fabricated Metal Product Mfg.,247,,Rick Ash,416-421-2600,Operations Manager,416-421-2600,,,16,Manganese and its compounds,0,189032,0,77,0,0,0,0
90,371,Coca-Cola Canada Bottling Limited,24 Fenmar Drive,M9L 1L8,43.759,-79.5366,312110,Soft Drink & Ice Mfg.,140,,Hassan Jalilian,416-749-0440,Continuous ImprovementSpecialist,437-429-5359,,,25,Volatile Organic Compounds (VOCs) Total,323,928,0,1251,0,0,0,0
91,415,Primo Foods Inc,56 Huxley Road,M9M 1H2,43.7233,-79.5281,311823,Dry Pasta Mfg.,78,,Matthew Farias,416-741-9300,Plant Manager,416-741-9300,,416-741-3766,23,Nitrogen Oxides (NOx),2654,0,0,2654,0,0,0,0
92,417,Mondelez Canada Inc Scarborough Bakery,370 Progress Avenue,M1P 2Z4,43.775,-79.2647,311821,Cookie & Cracker Mfg.,251,,Dolly Lakshman,416-291-3713,Environmental Manager,647-802-5552,,,25,Volatile Organic Compounds (VOCs) Total,105,720,0,471,0,0,0,0
93,24387,The University Of Toronto Medical Sciences Building,1 King's College Circle,M5S 1A8,43.6611,-79.3944,611310,Universities,469,,Matthew White,416-978-4467,Enviro Compliance  Safety Tech,416-978-5087,,,25,Volatile Organic Compounds (VOCs) Total,0,0,8575,1715,0,0,0,0
94,24394,University Of Toronto Scarborough Science Wing,1265 Military Trail,M1C 1A4,43.785,-79.1852,611310,Universities,569,,Matthew White,416-208-5141,Enviro Compliance  Safety Tech,416-978-5087,,,23,Nitrogen Oxides (NOx),8450,0,0,8450,0,0,0,0
95,24509,Questa Design Limited,1305 Morningside Avenue,M1B 4Z5,43.8049,-79.2007,332710,Machine Shops,12,,Aki Hirano,416-281-0502,Vice President,416-281-0502,,,16,Manganese and its compounds,0,10,0,0,0,0,0,0
96,24646,Scarboro Steel Works Inc.,102 Manville Rd,M1L 4J1,43.721,-79.2812,232230,Structural Steel & Precast Concrete Erection,18,,Dritan Xhuveli,416-751-5033,President,416-751-5033,,,24,Particulate Matter 2.5 (PM2.5),13,0,0,13,0,0,0,0
97,24646,Scarboro Steel Works Inc.,102 Manville Rd,M1L 4J1,43.721,-79.2812,232230,Structural Steel & Precast Concrete Erection,18,,Dritan Xhuveli,416-751-5033,President,416-751-5033,,,9,"Chromium, Non-Hexavalent and its compounds",0,299,0,168,0,0,0,0
98,24725,Olympic Kitchens Inc,150 Nugget Avenue,M1S 3A7,43.7947,-79.2537,321999,All Other Misc. Wood Product Mfg.,28,,George Katsis,416-266-8851,Owner,416-266-8851,,,25,Volatile Organic Compounds (VOCs) Total,4,12261,0,12265,0,0,0,0
99,24744,Cascades Recovery Inc Thornmount,45 Thornmount Drive,M1B 5P5,43.808,-79.195,562920,Material Recovery Facilities,93,,Jason Gale,416-232-8808,Manager Of RQSS,416-708-1560,,416-232-8825,16,Manganese and its compounds,0,23,0,0,0,0,0,0
100,438,Ipex Inc,11 Bermondsey Rd,M4B 1Z3,43.7141,-79.3114,326122,Plastic Pipe & Pipe Fitting Mfg.,140,,Seun Ayoola,416-751-3820,HSE Specialist,416-751-3820,27268,,24,Particulate Matter 2.5 (PM2.5),629,0,0,629,0,0,0,0
101,446,D Crupi And Sons Limited Passmore Ave Asphalt Plant,85 Passmore Ave,M1V 4S9,43.8201,-79.2973,324121,Asphalt Paving Mixture & Block Mfg.,4,,Domenic Passalacqua,416-291-1986,Plant Manager,416-291-1986,,416-291-3252,24,Particulate Matter 2.5 (PM2.5),565,0,0,565,0,0,0,0
102,448,D Crupi And Sons Limited Brimley Asphalt Plant,477 Brimley Road,M2M 3W2,43.7325,-79.2462,324121,Asphalt Paving Mixture & Block Mfg.,4,www.crupigroup.com,Domenic Passalacqua,416-261-3361,Plant Manager,416-291-1986,,416-291-3252,24,Particulate Matter 2.5 (PM2.5),294,0,0,294,0,0,0,0
103,24982,Starplex Scientific Inc,50 Steinway Boulevard,M9W 6Y3,43.7504,-79.6244,326160,Plastic Bottle Mfg.,100,,Harry Paray,416-674-7474,Materials Supervisor,416-674-7474,,,24,Particulate Matter 2.5 (PM2.5),159,0,0,0,0,0,0,0
104,25032,Tayco Panelink Ltd,400 Norris Glen Road,M9C 1H5,43.6233,-79.5553,337214,Office Furniture (except Wood) Mfg.,160,,SUNNY SINGH,416-252-8000,PLANT MANAGER,416-252-8000,,416-252-4467,24,Particulate Matter 2.5 (PM2.5),4005,0,0,4005,0,0,0,0
105,25300,Lush Manufacturing,35 Jutland Rd,M8Z 2G6,43.6272,-79.5241,325610,Soap & Cleaning Compound Mfg.,250,,Claudio O&#39;Donell,647-317-3571,CAPEX Manager,647-317-3571,,,25,Volatile Organic Compounds (VOCs) Total,15711,0,0,15711,0,0,0,0
106,463,CCL Label,35 McLachlan Drive,M9W 1E4,43.6934,-79.5873,323119,Other Printing,140,www.cclind.com,Jean Leet,416-675-3161,QA Manager,416-675-3161,4978,416-675-8831,25,Volatile Organic Compounds (VOCs) Total,0,0,11927,1053,0,0,0,0
107,465,Toronto Transit Commission  Hillcrest Complex,1138 Bathurst Street,M5R 3H2,43.6753,-79.4152,485110,Urban Transit Systems,1295,,Shaun DeSouza,416-393-4760,Manager Environment,416-554-1299,,,23,Nitrogen Oxides (NOx),1173,0,0,1173,0,0,0,0
108,493,MillerKnoll North America Corp.,1000 Arrow Road,M9M 2Y7,43.7495,-79.5329,337213,Wood Office Furniture Mfg.,500,,Ruchir Sharma,416-401-6003,Manager EHS,416-948-7597,,,23,Nitrogen Oxides (NOx),1415,0,0,1415,0,0,0,0
109,25351,CanaDatum Moulds Ltd,55 Goldthorne Avenue,M8Z 5S7,43.6156,-79.5138,333511,Industrial Mould Mfg.,105,,Colleen Musalem,416-252-1212,VP Finance,416-252-1212,,416-252-5377,16,Manganese and its compounds,0,752,0,0,0,0,0,0
110,25396,Bestway Donlands Cleaners,249 Donlands Ave,M4J 3R5,43.6876,-79.3402,812320,Dry Cleaning & Laundry Serv. (exc. Coin-Op.),8,,Tom Roniotis,416-461-6381,President,416-461-6381,,,19,Tetrachloroethylene (Perchloroethylene),0,0,1287,467,0,0,0,0
111,504,Spec Furniture Inc,165 City View Drive,M9W 5B1,43.7045,-79.5889,337127,Institutional Furniture Mfg.,102,,Steven Spence,416-246-5526,Quality Assurance,416-246-5540,,,24,Particulate Matter 2.5 (PM2.5),211,0,0,211,0,0,0,0
112,519,Four Star Metal Finishing Ltd,1162 Barmac Drive,M9L 1X5,43.7668,-79.5543,332810,"Coating, Engraving & Heat Treating Activities",41,,Branko Lebar,416-745-1742,President,416-745-1742,,416-745-2800,18,Nickel and its compounds,0,4921,0,0,0,0,0,0
113,534,Atlas Roofing Corporation,55 Akron Road,M8W 1T3,43.5983,-79.5357,326150,Urethane & Miscellaneous Foam Product Mfg.,34,,Judy Denchev,416-201-8975,Plant Manager,416-201-8975,,,23,Nitrogen Oxides (NOx),638,0,0,638,0,0,0,0
114,25531,Abs Metalworks Ltd,800 Arrow Rd,M9M 2Z8,43.749,-79.5324,332710,Machine Shops,4,,Amaro Soares,416-646-1373,President,416-646-1373,,,16,Manganese and its compounds,0,60,0,0,0,0,0,0
115,25558,Alps Auto Repair,14 Drummond St,M8V 1Y8,43.6126,-79.5001,811121,"Automotive Body, Paint & Interior R&M",5,,Antonio Matta,416-255-2601,Owner,416-255-2601,,,20,Trichloroethylene,0,0,335,330,0,0,0,0
116,25572,Champion Motors,117 Crockford Blvd,M1R 3B7,43.7413,-79.2889,811111,General Automotive Repair,8,,Champion Motors Champion Motors,416-751-8047,Champion Motors,416-751-8047,,,25,Volatile Organic Compounds (VOCs) Total,0,0,135,135,0,0,0,0
117,25747,Central Auto Collision Service Ltd,61 Crockford Blvd,M1R 3B7,43.7402,-79.2882,811121,"Automotive Body, Paint & Interior R&M",3,,Victor Terzis,416-752-2546,Manager,416-752-2546,,,24,Particulate Matter 2.5 (PM2.5),168,0,0,168,0,0,0,0
118,547,MSB Plastics Manufacturing Ltd Plant 2,10 Disco Rd,M9W 1L7,43.7023,-79.5906,326193,Motor Vehicle Plastic Parts Mfg.,233,,Raja Narayanan,416-675-2220,EHS Specialist,416-333-8807,,,23,Nitrogen Oxides (NOx),1310,0,0,1310,0,0,0,0
119,553,Autostyle Autobody Inc,1571 Warden Ave,M1R 2S9,43.765,-79.3019,811121,"Automotive Body, Paint & Interior R&M",5,,Fernendo Quintino,416-298-6886,Manager,416-298-6886,,416-298-3215,24,Particulate Matter 2.5 (PM2.5),242,0,0,36,0,0,0,0
120,553,Autostyle Autobody Inc,1571 Warden Ave,M1R 2S9,43.765,-79.3019,811121,"Automotive Body, Paint & Interior R&M",5,,Fernendo Quintino,416-298-6886,Manager,416-298-6886,,416-298-3215,25,Volatile Organic Compounds (VOCs) Total,0,0,409,409,0,0,0,0
121,569,City Of Toronto Ashbridges Bay Wastewater Treatment Plant,9 Leslie Street,M4M 3M9,43.6563,-79.3261,221320,Sewage Treatment Facilities,174,,Mohsen Karizmeh,416-392-8335,Regulatory Compliance Analyst,437-245-5685,,,24,Particulate Matter 2.5 (PM2.5),579,0,0,579,0,0,0,0
122,570,City Of Toronto Highland Creek Treatment Plant,51 Beechgrove Drive,M1E 3Z3,43.7654,-79.1522,221320,Sewage Treatment Facilities,57,,Mohsen Karizmeh,416-392-8335,Regulatory Compliance Analyst,437-245-5685,,,18,Nickel and its compounds,0,371,0,0,0,182,0,0
123,571,City Of Toronto Humber Wastewater Treatment Plant,130 The Queensway,M8Y 1H9,43.6311,-79.481,221320,Sewage Treatment Facilities,61,,Mohsen Karizmeh,416-392-8335,Regulatory Compliance Analyst,437-245-5685,,,24,Particulate Matter 2.5 (PM2.5),285,0,0,285,0,0,0,0
124,25879,MacKinnon Bowes Limited,2 Meridian Road,M9W 4Z7,43.6831,-79.5819,812210,Funeral Homes,35,,Alex Cole,416-465-7508,Management,416-465-7508,,416-465-6756,14,Formaldehyde,0,0,100,10,0,0,0,0
125,25882,Ardaven Platers Inc,11 Carson Street,M8W 3R7,43.6001,-79.5331,332810,"Coating, Engraving & Heat Treating Activities",14,,Stephen Spray,416-252-2222,General Manager,416-252-2222,,,18,Nickel and its compounds,0,433,0,0,0,0,0,0
126,25891,H & E Printing Service,65  Torbarrie  Road,M3L 1G5,43.7237,-79.5223,323119,Other Printing,20,,Herald Chung,416-783-8562,Owner,416-783-8562,,416-787-3233,25,Volatile Organic Compounds (VOCs) Total,0,0,2940,1855,0,0,0,0
127,26063,EggSolutions - Global Egg Corporation Newbridge,25 Newbridge Road,M8Z 2L6,43.6264,-79.5399,311990,All Other Food Mfg.,30,,Fatima Miranda,416-236-6371,Plant Manager,416-231-7220,,,23,Nitrogen Oxides (NOx),1219,0,0,1219,0,0,0,0
128,591,Gay Lea Foods CoOp Ltd Clayson Division,100 Clayson Road,M9M 2G7,43.723,-79.5254,311515,Dairy Product (except Frozen & Fluid) Mfg.,106,,Ashish Panji,905-283-5300,Director Of OHSE  S,647-277-4309,,416-742-6947,23,Nitrogen Oxides (NOx),2584,0,0,2584,0,0,0,0
129,603,Allied Halo Industries Inc,345 Nantucket Blvd,M1P 2P2,43.7623,-79.2767,323119,Other Printing,77,,Danielle Tavares,416-751-2042,Health  Safety Coordinator,416-751-2042,,416-751-6012,25,Volatile Organic Compounds (VOCs) Total,0,19,220090,199878,0,0,0,0
130,26098,Toronto Metropolitan University,350 Victoria St,M5B 2K3,43.6578,-79.3805,611310,Universities,3557,,Oluwajinmi Aina,416-979-5000,"EHS Manager, Chemicals and Contr",416-979-5000,,,7,Chloroform (Trichloromethane),0,0,269,269,0,0,0,0
131,26115,GFL Environmental Inc Vickers,85 Vickers Rd,M9B 1C1,43.6246,-79.5542,562910,Remediation Services,3,,Grimaud Montignon,416-231-4333,VP Soil Services,416-236-9907,,,24,Particulate Matter 2.5 (PM2.5),118,0,0,118,0,0,0,0
132,29270,Alsco Uniforms,54 Junction Rd,M6N 1B6,43.6682,-79.465,812320,Dry Cleaning & Laundry Serv. (exc. Coin-Op.),,,Bob Morley,416-763-4576,General Manager,416-763-4576,,,25,Volatile Organic Compounds (VOCs) Total,22,0,2473,161,0,0,0,0
133,29276,Miller Paving Limited,1159 Tapscott Avenue,M1X 1S9,43.829,-79.2444,324121,Asphalt Paving Mixture & Block Mfg.,6,,Mate Jurkin,416-293-0747,GTA Material General Manager,416-717-7816,,,24,Particulate Matter 2.5 (PM2.5),4366,0,0,4366,0,0,0,0
134,24265,Huys Industries Ltd,175 Toryork Dr,M9L 2Y7,43.7593,-79.5569,333990,All Other General-Purpose Machinery Mfg.,40,,Nigel Scotchmer,416-747-1611,PResident,416-747-1611,,416-747-7171,,,,,,,,,,
135,22827,ABM Auto Center,12 Elrose Ave,M9M 2H6,43.718,-79.5258,811121,"Automotive Body, Paint & Interior R&M",3,,Thanh Nguyen,416-744-1173,Owner,416-744-1173,,647-776-2787,,,,,,,,,,
136,22548,ARBO Engineering Inc,3 Whitehorse Road,M3J 3G8,43.7551,-79.4696,333920,Material Handling Equipment Mfg.,5,www.arbo-feeders.com,Ruth Zaugg,416-636-7057,Office Manager,416-636-7057,121,416-630-9135,,,,,,,,,,
137,23567,Fusebox Designs,120 Nugget Ave,M1S 3A7,43.7937,-79.2552,323113,Commercial Screen Printing,50,,Lawrence Hamilton,416-285-8808,Owner,416-285-8808,,,,,,,,,,,,
138,24388,Geoffrey Nyambaka,178 Rexdale Blvd,M9W 1R3,43.712,-79.5729,541380,Testing Laboratories,600,,GEOFFREY NYAMBAKA,416-747-4253,OHSE MANAGER,416-700-9043,,416-700-9043,,,,,,,,,,
139,25944,The Printing House Limited Branch 005,505 University Avenue ,M5G 1X3,43.6559,-79.388,323119,Other Printing,7,,Hamish Selby,416-204-9256,Manager,416-204-9256,,,,,,,,,,,,
140,382,Steam Whistle Brewing,255 Bremner Blvd,M5V 3M9,43.6418,-79.3864,312120,Breweries,133,,Erica McOustra,416-362-2337,Brewmaster,416-697-2337,,,,,,,,,,,,
141,25352,The Printing House Branch 027,858 King Street West,M5V 1P1,43.6429,-79.4087,323115,Digital Printing,4,,Brian Matthews,416-865-1660,Manager,416-865-1660,,,,,,,,,,,,
142,23353,Viele Brothers Auto Body,82 Lambton Ave,M6N 2S6,43.683,-79.4893,811121,"Automotive Body, Paint & Interior R&M",3,,Tony Viele,416-763-5645,Manager,416-763-5645,,416-763-5636,,,,,,,,,,
143,218,Digital Specialty Chemicals Limited,470 Coronation Drive,M1E 4Y4,43.7648,-79.1696,325999,All Other Misc. Chemical Product Mfg.,60,,Ravi Gukathasan,416-231-2991,CEO,416-231-2991,,,,,,,,,,,,
144,23484,All Washed Up Laundromat,31 Tapscott Road,M1B 4Y7,43.8055,-79.221,812310,Coin-Operated Laundries & Dry Cleaners,1,,Michael Cardoso,416-379-8888,Owner,416-715-3512,,,,,,,,,,,,
145,24441,Tekran Instruments Corp,330 Nantucket Blvd,M1P 2P4,43.7627,-79.277,334512,"Measuring, Medical & Controlling Devices Mfg.",22,,Gabe Eiras,416-449-3084,Operations Manager,416-449-3084,,416-449-9298,,,,,,,,,,
146,473,Toronto Transit Commission Malvern Garage,5050 Sheppard Avenue East,M1S 4N3,43.7931,-79.2424,485110,Urban Transit Systems,124,http://www3.ttc.ca,Shaun DeSouza,416-393-3290,Manager Environment,416-554-1299,,,,,,,,,,,,
147,25574,Somerset Kitchens Inc,449 Fenmar Dr,M9L 2R6,43.7633,-79.5586,321999,All Other Misc. Wood Product Mfg.,12,,Angelo Violo,416-663-1053,Owner,416-663-1053,,416-663-1054,,,,,,,,,,
148,25486,Aromatics  Flavors Inc,125 Midwest Road,M1P 3A6,43.7586,-79.2702,311930,Flavouring Syrup & Concentrate Mfg.,12,,Stephen Minchopoulos,416-759-1600,Lab Manager,416-759-1600,,416-759-2953,,,,,,,,,,
149,23123,Wai Tack Kee Fine Food Inc,87 Thornmount Drive,M1B 5S5,43.8053,-79.1951,311990,All Other Food Mfg.,1,,Joe Tam,416-283-6236,President,416-283-6236,,,,,,,,,,,,
150,24779,Rainbow Sign Manufacturing Inc,132 Rivalda Road,M9M 2M8,43.7441,-79.5363,418990,All Other Whl.,7,,Ron Yankiver,416-665-9663,VP,416-665-9663,,,,,,,,,,,,
151,273,Dufferin Kwik Kopy,5000 Dufferin St,M3H 5T5,43.7821,-79.4701,453210,Office Supplies & Stationery Stores,3,,David Quail,416-661-2413,President,416-661-2813,,416-661-9440,,,,,,,,,,
152,23056,The Printing House Limited,66 Wellington Street West TD Centre Concourse Level,M5K 1H1,43.6472,-79.3812,323119,Other Printing,17,,Yoshiki Duell,416-363-1101,General Manager,416-363-1101,,416-366-4564,,,,,,,,,,
153,23413,Lowes Mfg Ltd Ta Decal Craft,3400 Midland Ave,M1V 4Y4,43.8106,-79.2905,323113,Commercial Screen Printing,6,,Roger Lowe,416-292-8452,General Manager,416-292-8452,,,,,,,,,,,,
154,23,New Era Tool Die Ltd,241 Toryork Drive,M9L 1Y2,43.7613,-79.5614,332710,Machine Shops,35,,Daniel Baldassarra,416-742-8098,Project Manager,416-742-8098,,416-742-1967,,,,,,,,,,
155,24538,Nova Supreme Dry Cleaners,140 The Esplanade,M5A 4P5,43.6484,-79.3703,812320,Dry Cleaning & Laundry Serv. (exc. Coin-Op.),5,,Jintae Kim,416-350-8392,Owner,416-350-8392,,,,,,,,,,,,
156,23235,St. Lawrence Cleaners,603 Church Street,M4Y 2E6,43.669,-79.3823,812320,Dry Cleaning & Laundry Serv. (exc. Coin-Op.),2,,JOOYOUNG KIM,416-922-5003,Director,416-922-5003,,,,,,,,,,,,
157,25867,Decorgragh Ltd,320 Richmond St E,M5A 1P9,43.6535,-79.3689,323114,Quick Printing,5,,Veronica DSilva,416-366-3472,Manager,416-366-3472,,,,,,,,,,,,
158,22188,Crystal Tile & Marble Ltd.,23 Apex Road,M6A 2V6,43.7157,-79.4587,551113,Holding Companies,1,,Dino Figliomeni,416-781-5671,President,416-781-5671,,,,,,,,,,,,
159,26058,University Health Network Hillcrest Centre,47 Austin Terrace,M5R 1Y8,43.6781,-79.4159,623110,Nursing Care Facilities,150,,Michael Kurz,416-340-4800,Director Env Compl Energy,416-456-7520,,,,,,,,,,,,
160,23113,Norex Div Of Norspex Ltd,100 Minuk Acres,M1E 4Y6,43.7659,-79.1579,326198,All Other Plastic Product Mfg.,22,,Michael Hotta,416-282-3129,Plant Manager,416-282-3129,,,,,,,,,,,,
161,135,Ridley Funeral Home,3080 Lake Shore Blvd W,M8V 1K3,43.5992,-79.5125,812210,Funeral Homes,16,,Brad Jones,416-259-3705,President,416-259-3705,,416-259-8093,,,,,,,,,,
162,24539,Forward Signs Inc,60 Emblem Court,M1S 1B1,43.7785,-79.2774,232990,All Other Special Trade Contracting,90,,Wilson Ho Ho,416-291-4477,President,416-291-4477,,416-291-4678,,,,,,,,,,
163,23790,Alexander Karpuchin Limited,464 Royal York Road,M8Y 2S2,43.6218,-79.5008,321999,All Other Misc. Wood Product Mfg.,7,,Joanne Clement,416-253-5000,Office Manager,416-253-5000,,416-253-5124,,,,,,,,,,
164,22799,New Way Cleaners,1100 Yonge St,M4W 2L6,43.6785,-79.3902,812320,Dry Cleaning & Laundry Serv. (exc. Coin-Op.),12,,Andrew Lee,416-923-1307,Manager,416-303-3725,,,,,,,,,,,,
165,22436,Nobeltek Tools Inc,4141 Weston Road,M9L 2S5,43.767,-79.5458,332710,Machine Shops,5,,Ju-Chi Nick Li,416-747-7890,Vice President,416-747-7890,,,,,,,,,,,,
166,621,Griffith Foods Limited,757 Pharmacy Avenue,M1L 3J8,43.7188,-79.2947,311990,All Other Food Mfg.,325,,Lee Barney,416-288-3050,Facilities and Eng Manager,416-908-2422,,,25,Volatile Organic Compounds (VOCs) Total,43129,30120,313,43442,0,0,0,0
167,15149,Williams Brothers Corporation,777 Tapscott Rd,M1X 1A2,43.8177,-79.2395,332999,All Other Misc. Fabricated Metal Product Mfg.,52,,Shaun Dooner,416-299-7767,General Manager,416-299-7767,,,23,Nitrogen Oxides (NOx),246,0,0,246,0,0,0,0
168,21937,Ashford Cleaners,535 Eglinton Ave West,M5N 1B1,43.7034,-79.4142,812320,Dry Cleaning & Laundry Serv. (exc. Coin-Op.),22,,Lucaino Accardi,416-322-3127,Manager,416-322-3127,,,23,Nitrogen Oxides (NOx),87,0,0,87,0,0,0,0
169,22197,Identifab Industries,43 Baywood Road,M9V 3Y8,43.7468,-79.6061,323113,Commercial Screen Printing,20,,Kathleen McMillan,416-743-7343,Purchasing Manager,416-743-3734,224,416-743-2188,25,Volatile Organic Compounds (VOCs) Total,0,926,0,0,0,0,0,0
170,22756,Del Monte Custom Cleaners Ltd,1124 The Queensway,M8Z 1P7,43.6227,-79.519,812320,Dry Cleaning & Laundry Serv. (exc. Coin-Op.),6,,Rinaldo DeMichele,416-259-5511,CEO,416-259-5511,,,25,Volatile Organic Compounds (VOCs) Total,2,0,104,6,0,0,0,0
171,22757,Ryding Auto Body,1107 Castlefield Avenue,M6B 1E8,43.7006,-79.4525,811121,"Automotive Body, Paint & Interior R&M",12,,Zoe Delorenzo,416-787-6174,Book Keeper,416-787-6174,,,25,Volatile Organic Compounds (VOCs) Total,0,0,475,475,0,0,0,0
172,22810,Sketchley Cleaners,5 Dohme Ave,M4B 1Y7,43.7113,-79.3109,812320,Dry Cleaning & Laundry Serv. (exc. Coin-Op.),35,,Betty Skoutakis,416-757-0440,President,416-757-0440,,,19,Tetrachloroethylene (Perchloroethylene),0,0,98,36,0,0,0,0
173,22858,Bridge Ramdewar,92 Oakdale Road,M3N 1V9,43.7399,-79.5258,337110,Wood Kitchen Cabinet & Counter Top Mfg.,55,,Bridge Ramdewar,647-973-5840,Health And Safety Coordinator,647-973-5840,,,14,Formaldehyde,0,3884,,0,0,0,0,0
174,22984,A A Auto Body,260 Midwest Rd,M1P 3B4,43.7586,-79.2704,811121,"Automotive Body, Paint & Interior R&M",4,,Lakram Chatterpaul,416-751-4500,Owner,416-751-4500,,416-751-8472,24,Particulate Matter 2.5 (PM2.5),180,0,0,180,0,0,0,0
175,23019,Tower Litho Company Limited,43 Casebridge Court,M1B 5M9,43.8099,-79.1986,323119,Other Printing,36,,Janette Fieldman,416-283-4258,Office Manager,416-283-4258,,416-283-4967,25,Volatile Organic Compounds (VOCs) Total,222,0,0,222,0,0,0,0
176,23247,Carstar On St Clair,2528 St Clair Avenue W,M6N 1L6,43.6684,-79.4863,811121,"Automotive Body, Paint & Interior R&M",7,,Frank Abate,416-769-4440,Owner,416-769-4440,,,25,Volatile Organic Compounds (VOCs) Total,0,0,199,199,0,0,0,0
177,23292,Forest Lawn Mausoleum And Cremation Centre,4570 Yonge Street,M2N 5L6,43.7565,-79.4097,812220,Cemeteries & Crematoria,5,,Jeramy Cochrane,416-225-3345,Director Of Operations,416-231-1462,,,17,Mercury and its compounds,0,3,0,3,0,0,0,0
178,23302,Apotex 400 Ormont,400  Ormont Drive,M9L 1N9,43.7654,-79.5427,325410,Pharmaceutical & Medicine Mfg.,51,,Michael Taniguchi,416-749-9300,Associate Director EHS Programs,647-262-6903,,,23,Nitrogen Oxides (NOx),13059,0,0,13059,0,0,0,0
179,23317,Assured Toronto West,561 Keele Street,M6N 3E4,43.6708,-79.4668,811121,"Automotive Body, Paint & Interior R&M",15,,Kim Miller,416-762-7287,Director Env Health and Safety,877-743-7237,,,25,Volatile Organic Compounds (VOCs) Total,0,0,120,120,0,0,0,0
180,23350,York Auto Body,3583 Dundas St W,M6S 2S8,43.6657,-79.4924,811121,"Automotive Body, Paint & Interior R&M",3,,Vince Vumbaca,416-766-2017,Manager,416-766-0239,,416-766-2017,25,Volatile Organic Compounds (VOCs) Total,0,0,240,180,0,0,0,0
181,23352,Fourway Auto Body,6590 Finch Ave W,M9V 3Z6,43.7349,-79.5999,811121,"Automotive Body, Paint & Interior R&M",13,,Mike Pallidino,416-743-5821,Manager,416-743-5821,,416-743-5823,24,Particulate Matter 2.5 (PM2.5),421,0,0,63,0,0,0,0
182,23352,Fourway Auto Body,6590 Finch Ave W,M9V 3Z6,43.7349,-79.5999,811121,"Automotive Body, Paint & Interior R&M",13,,Mike Pallidino,416-743-5821,Manager,416-743-5821,,416-743-5823,25,Volatile Organic Compounds (VOCs) Total,0,0,556,310,0,0,0,0
183,23356,Super Carstar Collision,14 Taber Road,M9W 3A5,43.7187,-79.5734,811121,"Automotive Body, Paint & Interior R&M",11,,Robert Chiummiento,416-743-2501,Manager,416-743-2501,,416-743-2573,24,Particulate Matter 2.5 (PM2.5),228,0,0,155,0,0,0,0
184,23381,Ofir Machine Shop Limited,800 Petrolia Road,M3J 3K4,43.7796,-79.4888,332710,Machine Shops,7,,Ran Ofir,416-661-4566,VP Of Operations,416-661-4566,,416-661-1474,15,Lead and its compounds,0,29,0,0,0,0,0,0
185,23456,The Vinyl Company Inc,700 Fenmar Drive,M9L 1R7,43.7646,-79.561,326198,All Other Plastic Product Mfg.,48,,Ananda Billava,416-742-7905,Plant Manager,416-742-7905,,416-742-7907,22,Polycyclic Aromatic Hydrocarbons (PAHs),512,512,512,512,0,0,0,0
186,23456,The Vinyl Company Inc,700 Fenmar Drive,M9L 1R7,43.7646,-79.561,326198,All Other Plastic Product Mfg.,48,,Ananda Billava,416-742-7905,Plant Manager,416-742-7905,,416-742-7907,25,Volatile Organic Compounds (VOCs) Total,512,512,512,512,0,0,0,0
187,23472,Martino Bros Co Limited,3379 Dundas St W,M6S 2R9,43.6656,-79.4833,811121,"Automotive Body, Paint & Interior R&M",12,,Jack Martino,416-463-5211,Partner,416-763-5211,,,24,Particulate Matter 2.5 (PM2.5),120,0,0,1,0,0,0,0
188,23497,Inline Fiberglass Ltd,30 Constellation Court,M9W 1K1,43.691,-79.5964,326198,All Other Plastic Product Mfg.,100,,Tom Rokicki,416-679-1171,Operations Manager,416-679-1171,,416-569-1150,25,Volatile Organic Compounds (VOCs) Total,0,252703,0,112074,0,0,0,0
189,23504,CK Collision Centres,514 Centennial Rd N,M1C 2A6,43.7934,-79.1533,811121,"Automotive Body, Paint & Interior R&M",4,,Terry Bradimore,416-281-9394,Manager,416-281-9394,,,25,Volatile Organic Compounds (VOCs) Total,0,0,402,402,0,0,0,0
190,23818,Millwick Waste Recycling Inc,50 Millwick Dr,M9L 1Y3,43.7588,-79.5611,562920,Material Recovery Facilities,6,,John Quaglietta,416-746-1886,Operations Manager,416-746-1886,,,24,Particulate Matter 2.5 (PM2.5),124,0,0,124,0,0,0,0
191,23866,Manoucher Fine Food Inc,703 Clayson Rd,M9M 2H4,43.7276,-79.5286,311814,Commercial Bakeries & Frozen Product Mfg.,25,,Angelina Cherepakha,416-747-1234,Bookkeeper,416-747-1234,,416-747-7005,23,Nitrogen Oxides (NOx),82,0,0,82,0,0,0,0
192,23876,Security Mirror Industries Limited,69 Densley Avenue,M6M 2P5,43.7049,-79.4714,327215,Glass Product Mfg. from Purchased Glass,10,,Craig Bahl,416-244-3393,,416-123-4567,,,15,Lead and its compounds,0,29,0,29,0,0,0,0
193,23905,Owens Corning Insulating Systems Canada LP,3450 McNicoll Avenue,M1V 1Z5,43.8216,-79.2591,327990,All Other Non-Metallic Mineral Product Mfg.,140,,Jacquelyn Desloges,416-412-8362,Environmental Leader,416-412-8362,,,16,Manganese and its compounds,0,601469,0,49,0,0,0,0
194,23919,Toronto Water Laboratory,30 Dee Avenue,M9N 1S9,43.7108,-79.537,541380,Testing Laboratories,22,,Margareta Petrescu,416-392-2900,Chief Chemist,416-392-2900,,,13,Dichloromethane (Methylene chloride),0,0,424,106,0,0,0,0
195,23931,Kobay Enstel Limited,125 Nashdene Road,M1V 2W3,43.8191,-79.2513,332118,Stamping,170,,Gavin Galansky,416-292-7088,President,416-412-4788,,,16,Manganese and its compounds,0,583,0,13,0,0,0,0
196,23952,Torcad Limited,275 Norseman Street,M8Z 2R5,43.6322,-79.5279,332810,"Coating, Engraving & Heat Treating Activities",51,,Darren Webber,416-239-3928,Plant Manager,416-239-3928,,416-239-0049,23,Nitrogen Oxides (NOx),1773,0,0,1773,0,0,0,0
197,24031,ASB Heating Elements Ltd,20 Bethridge Rd,M9W 1N1,43.7085,-79.5693,335311,Transformer (except Electronic) Mfg.,40,,Anthony Rondina,416-743-9977,Health And Safety,416-743-9977,,416-743-9424,24,Particulate Matter 2.5 (PM2.5),36,0,0,36,0,0,0,0
198,24055,Polytainers Inc,197 Norseman St,M8Z 2R5,43.633,-79.5239,326198,All Other Plastic Product Mfg.,523,,Dan Irimie,416-239-7311,Corporate Facilities Manager,416-239-7311,1214,416-239-0596,25,Volatile Organic Compounds (VOCs) Total,888,0,0,888,0,0,0,0
199,57,Material Sciences Corporation Continuous Colour Coat Ltd,1430 Martin Grove Road,M9W 4Y1,43.7169,-79.5826,332810,"Coating, Engraving & Heat Treating Activities",108,,Marika Toyama,416-743-7980,Environmental Engineer,416-743-7980,,416-743-5980,24,Particulate Matter 2.5 (PM2.5),187,0,0,187,0,0,0,0
200,170,Cascades Containerboard Packaging  Lithotech,5910 Finch Ave E,M1B 5P8,43.8169,-79.2246,323119,Other Printing,100,,David Campagnolo,416-412-3500,Quality Manager,416-412-3525,,,25,Volatile Organic Compounds (VOCs) Total,0,7380,0,7380,0,0,0,0
201,178,Nestle Foods Group Sterling Road Nestle Canada Inc,72 Sterling Road,M6R 2B6,43.6526,-79.4441,311330,Confectionery Mfg. from Purchased Chocolate,472,,Jacqueline Widjaja,416-535-2181,Environmental Specialist,416-535-2181,,,24,Particulate Matter 2.5 (PM2.5),536,0,0,536,0,0,0,0
202,192,Blanco Canada Incorporated,37 Jutland Road,M8Z 2G6,43.6277,-79.5227,326191,Plastic Plumbing Fixture Mfg.,120,,Lars Schwenteck,416-251-4733,Senior VicePresident,416-251-4733,,416-251-0217,9,"Chromium, Non-Hexavalent and its compounds",0,23044,0,0,0,0,0,0
203,195,Vintage Hardwood Flooring,409 Evans Avenue,M8Z 1K8,43.6152,-79.5287,321211,Hardwood Veneer & Plywood Mills,75,,Phil Kavanagh,416-521-6108,Director Imports,416-521-6104,,,8,"Chromium, Hexavalent and its compounds",0,4,0,0,0,0,0,0
204,24069,Vacuum Metallizing Limited,30 Dovedale Court,M1S 5A7,43.796,-79.2465,332810,"Coating, Engraving & Heat Treating Activities",22,,Jeffrey Sugar,416-782-8771,President,416-782-8771,,,23,Nitrogen Oxides (NOx),256,0,0,256,0,0,0,0
205,24080,Dufferin Iron Railings,12 Sable St,M6M 3K6,43.7056,-79.4719,332329,Other Ornamental & Architec. Metal Prod. Mfg.,9,,Dennis Parolin,416-535-1686,President,416-535-1686,,,25,Volatile Organic Compounds (VOCs) Total,0,267,0,267,0,0,0,0
206,24105,L&M Precision Products Inc.,150 Milvan Drive,M9L 1Z9,43.7573,-79.563,332720,"Turned Product & Screw, Nut & Bolt Mfg.",53,,Ed Grandy,416-741-0700,Senior Process Engineer,416-741-0700,230,416-741-5287,16,Manganese and its compounds,0,891,0,0,0,0,0,0
207,24125,Flexmaster Canada Limited,452 Attwell Drive,M9W 5C3,43.7042,-79.6094,332999,All Other Misc. Fabricated Metal Product Mfg.,35,,Don Sprung,416-679-0045,Health And Safety Manager,289-264-7915,,416-697-0045,5,Cadmium and its compounds,0,1343,0,0,0,0,0,0
208,257,Atlantic Packaging 350 Midwest Road,350 Midwest Road,M1P 3A9,43.7613,-79.2714,322211,Corrugated & Solid Fibre Box Mfg.,78,,Fatima Correia,416-298-5314,Environmental Manager,416-298-5431,,,24,Particulate Matter 2.5 (PM2.5),48,0,0,48,0,0,0,0
209,24173,Yarlmetal Fabrications Inc,40 Dynamic Drive,M1V 2W2,43.8178,-79.2482,332329,Other Ornamental & Architec. Metal Prod. Mfg.,30,,Dhimo Lad,416-297-9013,HR Coordinator,416-297-9013,,,18,Nickel and its compounds,0,3490,0,0,0,0,0,0
210,24181,Innocon Inc. Commissioners Street RMC Plant,535 Commissioners St,M4M 1A5,43.6545,-79.331,327320,Ready-Mix Concrete Mfg.,75,,Tracy Hodges,416-406-0540,Sustainability Manager,647-225-7649,,,23,Nitrogen Oxides (NOx),569,0,0,569,0,0,0,0
211,24200,Ingot Metal Company Limited,111 Fenmar Drive,M9L 1M3,43.7595,-79.5489,331410,Non-Ferrous (except Al) Smelting & Refining,23,,David Shore,416-749-1372,Manager,416-749-1372,,416-749-1371,24,Particulate Matter 2.5 (PM2.5),5631,0,0,5631,0,0,0,0
212,24200,Ingot Metal Company Limited,111 Fenmar Drive,M9L 1M3,43.7595,-79.5489,331410,Non-Ferrous (except Al) Smelting & Refining,23,,David Shore,416-749-1372,Manager,416-749-1372,,416-749-1371,15,Lead and its compounds,0,513253,0,162,0,0,0,0
213,24234,Superior Pressing Cleaners,458 Dupont St,M5R 1W6,43.6734,-79.4135,812320,Dry Cleaning & Laundry Serv. (exc. Coin-Op.),5,,Jin Man Jeon,416-537-5211,OWNER,416-537-5211,,,22,Polycyclic Aromatic Hydrocarbons (PAHs),19,0,0,0,0,0,0,0
214,295,Global Contract Inc,565 Petrolia Road,M3J 2X8,43.7737,-79.4883,337127,Institutional Furniture Mfg.,430,,Brian Covello,416-739-5000,Vice President and GM,416-739-5000,5086,,25,Volatile Organic Compounds (VOCs) Total,2601,0,0,2601,0,0,0,0
215,305,StampTek,555 Petrolia Road,M3J 2X8,43.7735,-79.4882,332118,Stamping,113,,Robert Gudelj,416-663-5442,Director Of Engineering,416-663-5442,,,16,Manganese and its compounds,0,27985,0,9,0,0,0,0
216,305,StampTek,555 Petrolia Road,M3J 2X8,43.7735,-79.4882,332118,Stamping,113,,Robert Gudelj,416-663-5442,Director Of Engineering,416-663-5442,,,25,Volatile Organic Compounds (VOCs) Total,0,0,184,184,0,0,0,0
217,315,Apotex Etobicoke,50 Steinway Boulevard,M9W 6Y3,43.7504,-79.6244,325410,Pharmaceutical & Medicine Mfg.,883,,Michael Taniguchi,416-675-0338,Associate Director EHS Programs,647-262-6903,,,25,Volatile Organic Compounds (VOCs) Total,856,0,77040,48076,0,0,0,0
218,348,Profile Industries Limited,201 Garyray Drive,M9L 2T2,43.7694,-79.5375,337214,Office Furniture (except Wood) Mfg.,135,,Harpal Banwait,416-748-2505,,416-748-2505,,,24,Particulate Matter 2.5 (PM2.5),149,0,0,149,0,0,0,0
219,361,Walton Street Steam Plant,95 Walton Street,M5G 1H9,43.6579,-79.3855,221330,Steam & Air-Conditioning Supply,12,,Phoebe Rezkalla,416-392-6845,HS Manager,647-962-0241,,,23,Nitrogen Oxides (NOx),124088,0,0,124088,0,0,0,0
220,24253,BLM Automatic Clutch Limited,863 Progress Ave,M1H 2X6,43.7808,-79.2381,332710,Machine Shops,18,,Don Allen,416-438-6200,Plant Manager,416-438-6200,,416-438-6208,25,Volatile Organic Compounds (VOCs) Total,0,273,0,273,0,0,0,0
221,24258,Saand Inc,250 Brockport Drive,M9W 5S1,43.7043,-79.5901,327215,Glass Product Mfg. from Purchased Glass,200,,Mark Franklin,416-798-2345,Owner,416-798-0440,,,25,Volatile Organic Compounds (VOCs) Total,0,0,18072,12706,0,0,0,0
222,24268,Han Minh Machine Inc,1100 Lodestar Road,M3J 2Z4,43.7582,-79.4665,332710,Machine Shops,25,,Andy Tang,416-636-0660,General Manager,416-636-0660,,416-636-0873,5,Cadmium and its compounds,0,25,0,0,0,0,0,0
223,24287,Airborn Flexible Circuits Inc,11 Dohme Ave,M4B 1Y7,43.7116,-79.3116,334410,Semiconductor & Electronic Component Mfg.,190,,Peter Pialis,416-752-2224,Director Of Engieering,416-285-3825,,,15,Lead and its compounds,0,0,102,0,0,0,0,0
224,24352,M  S Auto Refinishing,1293 Queen Street,M4L 1C2,43.6637,-79.3283,811121,"Automotive Body, Paint & Interior R&M",5,,Andy Marcozzi,416-461-5898,Secretary,416-651-5898,,416-461-6890,25,Volatile Organic Compounds (VOCs) Total,0,0,407,407,0,0,0,0
225,24367,Nick's Carstar Collision Centre,1172 Dovercourt Road,M6H 2X9,43.6727,-79.434,811121,"Automotive Body, Paint & Interior R&M",6,,Sam Saccoia,416-536-2526,Owneroperator,416-536-2526,,416-536-2106,25,Volatile Organic Compounds (VOCs) Total,0,0,334,211,0,0,0,0
226,363,Lincoln Electric Company Of Canada,179 Wicksteed Avenue,M4G 2B9,43.712,-79.3547,332999,All Other Misc. Fabricated Metal Product Mfg.,247,,Rick Ash,416-421-2600,Operations Manager,416-421-2600,,,25,Volatile Organic Compounds (VOCs) Total,0,698,0,698,0,0,0,0
227,371,Coca-Cola Canada Bottling Limited,24 Fenmar Drive,M9L 1L8,43.759,-79.5366,312110,Soft Drink & Ice Mfg.,140,,Hassan Jalilian,416-749-0440,Continuous ImprovementSpecialist,437-429-5359,,,24,Particulate Matter 2.5 (PM2.5),112,0,0,112,0,0,0,0
228,408,Maple Leaf Foods Cappola Cartwright,92 Cartwright Ave,M6A 1V2,43.7226,-79.4638,311614,Rendering & Meat Processing from Carcasses,39,,Joel Grant,416-787-6149,"Dir, Environmental Affairs",204-229-9594,,,23,Nitrogen Oxides (NOx),389,0,0,389,0,0,0,0
229,411,LANXESS Canada CoCie West Hill,10 Chemical Crt,M1E 3X7,43.7628,-79.1635,324190,Other Petroleum & Coal Products Mfg.,86,,Jeanette Waples,416-284-1661,EHSS Manager,416-724-3643,,416-284-1761,23,Nitrogen Oxides (NOx),5926,0,0,5926,0,0,0,0
230,24394,University Of Toronto Scarborough Science Wing,1265 Military Trail,M1C 1A4,43.785,-79.1852,611310,Universities,569,,Matthew White,416-208-5141,Enviro Compliance  Safety Tech,416-978-5087,,,24,Particulate Matter 2.5 (PM2.5),85,0,0,85,0,0,0,0
231,24555,Smith and Long Contracting Ltd.,133 Bridgeland Ave,M6A 1Y7,43.7255,-79.4634,332999,All Other Misc. Fabricated Metal Product Mfg.,67,,Vince Carbonara,416-781-6166,Controller,416-781-6166,,416-781-6259,18,Nickel and its compounds,0,21097,0,11,0,0,0,0
232,24640,SA Armstrong Ltd,23 Bertrand Ave,M1L 2P3,43.7338,-79.2861,333910,Pump & Compressor Mfg.,299,,Van Hai Nguyen,416-755-2291,Operations Manager,647-417-1790,,,15,Lead and its compounds,0,19487,0,0,0,0,0,0
233,24646,Scarboro Steel Works Inc.,102 Manville Rd,M1L 4J1,43.721,-79.2812,232230,Structural Steel & Precast Concrete Erection,18,,Dritan Xhuveli,416-751-5033,President,416-751-5033,,,8,"Chromium, Hexavalent and its compounds",0,10,0,10,0,0,0,0
234,429,Wakefield Canada Inc,3660 Lake Shore Blvd W,M8W 1P2,43.5937,-79.5369,324190,Other Petroleum & Coal Products Mfg.,50,,Mike Cowley,416-252-5511,VP Supply Chain,416-252-5511,4448,,23,Nitrogen Oxides (NOx),448,0,0,448,0,0,0,0
235,447,D Crupi And Sons Limited Bethridge Asphalt Plant,176 Bethridge Road,M9W 1N3,43.7092,-79.5856,324121,Asphalt Paving Mixture & Block Mfg.,4,www.crupigroup.com,Domenic Passalacqua,416-244-5691,Plant Manager,416-291-1986,,416-291-3252,24,Particulate Matter 2.5 (PM2.5),786,0,0,786,0,0,0,0
236,447,D Crupi And Sons Limited Bethridge Asphalt Plant,176 Bethridge Road,M9W 1N3,43.7092,-79.5856,324121,Asphalt Paving Mixture & Block Mfg.,4,www.crupigroup.com,Domenic Passalacqua,416-244-5691,Plant Manager,416-291-1986,,416-291-3252,23,Nitrogen Oxides (NOx),3474,0,0,3474,0,0,0,0
237,447,D Crupi And Sons Limited Bethridge Asphalt Plant,176 Bethridge Road,M9W 1N3,43.7092,-79.5856,324121,Asphalt Paving Mixture & Block Mfg.,4,www.crupigroup.com,Domenic Passalacqua,416-244-5691,Plant Manager,416-291-1986,,416-291-3252,25,Volatile Organic Compounds (VOCs) Total,5861,0,0,5861,0,0,0,0
238,448,D Crupi And Sons Limited Brimley Asphalt Plant,477 Brimley Road,M2M 3W2,43.7325,-79.2462,324121,Asphalt Paving Mixture & Block Mfg.,4,www.crupigroup.com,Domenic Passalacqua,416-261-3361,Plant Manager,416-291-1986,,416-291-3252,23,Nitrogen Oxides (NOx),909,0,0,909,0,0,0,0
239,25017,Auto Gallery Collision,6470  Kingston Rd,M1C 1L4,43.7921,-79.1569,811121,"Automotive Body, Paint & Interior R&M",1,,Latchmi Ramharakh,416-724-9407,Owner,416-724-9407,,416-724-9409,25,Volatile Organic Compounds (VOCs) Total,0,0,112,112,0,0,0,0
240,25041,The Hospital For Sick Children,555 University Avenue,M5G 1X8,43.6566,-79.3889,622111,General (exc. Paediatric) Hospitals,9600,,Edison Arizo,416-813-1500,Manager Plant Operations,416-813-7650,,416-813-7161,25,Volatile Organic Compounds (VOCs) Total,0,0,1590,208,0,0,0,0
241,25052,Highlight Auto Collision,2321 Keele Street,M6M 4A1,43.7052,-79.4772,811121,"Automotive Body, Paint & Interior R&M",6,,Benny Tran Binh,416-553-5333,Manager,416-588-5333,,,24,Particulate Matter 2.5 (PM2.5),168,0,0,168,0,0,0,0
242,25058,St Lawrence Cleaners,123 Front St E,M5A 1E3,43.6499,-79.37,812320,Dry Cleaning & Laundry Serv. (exc. Coin-Op.),2,,BYUNG JAE KWON,416-362-1739,OWNER,416-362-1739,,,19,Tetrachloroethylene (Perchloroethylene),0,0,114,35,0,0,0,0
243,25290,Micrometric Jig Boring & Jig Grinding,1210 Markham Rd,M1H 3B3,43.7777,-79.2334,332710,Machine Shops,7,www.micrometric.net,Cenzino Docimo,416-291-1974,President,416-291-1974,,416-291-5011,18,Nickel and its compounds,0,3,0,0,0,0,0,0
244,465,Toronto Transit Commission  Hillcrest Complex,1138 Bathurst Street,M5R 3H2,43.6753,-79.4152,485110,Urban Transit Systems,1295,,Shaun DeSouza,416-393-4760,Manager Environment,416-554-1299,,,25,Volatile Organic Compounds (VOCs) Total,62,0,9741,9803,0,0,0,0
245,466,The International Group Inc,50 Salome Drive,M1S 2A8,43.7846,-79.2748,324190,Other Petroleum & Coal Products Mfg.,150,,Izaura Araujo,416-293-4151,EHS Manager,416-571-1422,,,23,Nitrogen Oxides (NOx),38207,0,0,38207,0,0,0,0
246,488,Select Food Products Ltd,120 Sunrise Avenue,M4A 1B4,43.7177,-79.3101,311940,Seasoning & Dressing Mfg.,125,,Ghalib Hendow,416-759-9316,Director Of Engineering,416-759-9316,,,23,Nitrogen Oxides (NOx),897,0,0,897,0,0,0,0
247,488,Select Food Products Ltd,120 Sunrise Avenue,M4A 1B4,43.7177,-79.3101,311940,Seasoning & Dressing Mfg.,125,,Ghalib Hendow,416-759-9316,Director Of Engineering,416-759-9316,,,25,Volatile Organic Compounds (VOCs) Total,49,115953,0,5847,0,0,0,0
248,25347,Essilor Canada Ltd,347 Evans Avenue,M8Z 1K2,43.6165,-79.5207,339110,Medical Equipment & Supplies Mfg.,266,,Xavier Grandjean,416-252-0292,,416-573-2556,,,15,Lead and its compounds,0,10,0,0,0,0,0,0
249,25357,Stainless Piping Systems Inc,21 Steinway Blvd,M9W 6N4,43.7526,-79.6193,332999,All Other Misc. Fabricated Metal Product Mfg.,47,,Dave Damen,416-679-2937,President,416-679-2937,304,,24,Particulate Matter 2.5 (PM2.5),31,0,0,31,0,0,0,0
250,25365,University Of Toronto Galbraith Building,35 St George St,M5S 1A4,43.6599,-79.3964,611310,Universities,85,,Matthew White,416-453-8951,Envr Compliance  Safety,416-978-5087,,,25,Volatile Organic Compounds (VOCs) Total,0,0,1075,215,0,0,0,0
251,25366,University Of Toronto Dentistry Building,124 Edward St,M5G 1G6,43.6562,-79.3871,611310,Universities,200,,Matthew White,416-717-9583,Envr Compliance And Safety,416-978-5087,,,25,Volatile Organic Compounds (VOCs) Total,0,0,1900,380,0,0,0,0
252,25367,University Of Toronto Leslie L Dan Pharmacy Building,144 College St,M5S 3M2,43.6598,-79.3917,611310,Universities,400,,Matthew White,416-717-9804,Envr Compliance And Safety,416-978-5087,,,25,Volatile Organic Compounds (VOCs) Total,0,0,1525,305,0,0,0,0
253,25469,Brother Dry Clenners,83 Pelham Ave,M6N 1A5,43.6676,-79.4575,812320,Dry Cleaning & Laundry Serv. (exc. Coin-Op.),10,,Hong Tao Hu,416-651-8222,Manager,416-627-8278,,,23,Nitrogen Oxides (NOx),92,0,0,92,0,0,0,0
254,25499,Arts Metal Finish Ltd,555 Canarctic Dr,M3J 2P9,43.7769,-79.4867,332810,"Coating, Engraving & Heat Treating Activities",20,,Paul Sanclimenti,416-661-0605,Operations Manager,416-661-0605,,,24,Particulate Matter 2.5 (PM2.5),46,0,0,46,0,0,0,0
255,508,Portlands Energy Centre,470 Unwin Avenue,M4M 3B9,43.6475,-79.3299,221112,Fossil-Fuel Electric Power Generation,30,,Kevin Dick,416-462-8683,General Manager,416-462-8680,,416-462-1863,24,Particulate Matter 2.5 (PM2.5),2075,0,0,2075,0,0,0,0
256,508,Portlands Energy Centre,470 Unwin Avenue,M4M 3B9,43.6475,-79.3299,221112,Fossil-Fuel Electric Power Generation,30,,Kevin Dick,416-462-8683,General Manager,416-462-8680,,416-462-1863,25,Volatile Organic Compounds (VOCs) Total,18550,0,0,18550,0,0,0,0
257,518,Gazzola Paving Limited,345 Attwell Drive,M9W 5C2,43.7042,-79.5991,324121,Asphalt Paving Mixture & Block Mfg.,8,,William Orpin,416-675-7007,Project Manager,416-675-7007,,416-675-4371,24,Particulate Matter 2.5 (PM2.5),803,0,0,803,0,0,0,0
258,527,Sanofi Pasteur,1755 Steeles Avenue West,M2R 3T4,43.7884,-79.4645,325410,Pharmaceutical & Medicine Mfg.,1311,,Murray Fulmer,416-667-2700,Deputy Director Environment,416-667-2700,,,14,Formaldehyde,297,0,0,297,0,0,0,0
259,534,Atlas Roofing Corporation,55 Akron Road,M8W 1T3,43.5983,-79.5357,326150,Urethane & Miscellaneous Foam Product Mfg.,34,,Judy Denchev,416-201-8975,Plant Manager,416-201-8975,,,25,Volatile Organic Compounds (VOCs) Total,35,597488,0,59097,0,0,0,0
260,544,MSB Plastics Manufacturing Ltd Plt 1,23 Disco Rd,M9W 1M2,43.7019,-79.592,326193,Motor Vehicle Plastic Parts Mfg.,304,,Raja Narayanan,416-674-1471,EHS Specialist,416-333-8807,,,23,Nitrogen Oxides (NOx),880,0,0,880,0,0,0,0
261,25517,Millworks Custom Manufacturing 2001 Inc,25 Bertal Rd,M6M 4L7,43.6922,-79.4873,337127,Institutional Furniture Mfg.,250,,Pawel Kozlowski,416-760-0222,Division Head,416-760-0222,,,23,Nitrogen Oxides (NOx),436,0,0,436,0,0,0,0
262,25538,Postmedia Islington Printing Division,2250 Islington Avenue,M9W 3W4,43.715,-79.5552,323119,Other Printing,135,,Brad McSorley,416-646-7945,Building Manager,416-646-7945,,,23,Nitrogen Oxides (NOx),728,0,0,728,0,0,0,0
263,25684,New Park Cleaners,426 Wilson Ave,M3H 1S9,43.7362,-79.4424,812320,Dry Cleaning & Laundry Serv. (exc. Coin-Op.),2,,Sathiyaseelan Ramalingam,416-645-2084,Owner,416-645-2084,,,19,Tetrachloroethylene (Perchloroethylene),0,0,234,0,0,0,0,0
264,25728,Awin Advanced Auto Body Centre,4600 Dufferin St,M3H 5S4,43.771,-79.4688,811121,"Automotive Body, Paint & Interior R&M",12,,Dan Silvestri,416-650-5995,Manager,416-650-5995,,,25,Volatile Organic Compounds (VOCs) Total,0,0,768,346,0,0,0,0
265,25744,Carstar Toronto Eastern Ave,344 Eastern Ave,M4M 3G5,43.6567,-79.3481,811121,"Automotive Body, Paint & Interior R&M",4,,Sam Saccoia,416-265-2227,President,416-265-2227,,,25,Volatile Organic Compounds (VOCs) Total,0,0,307,184,0,0,0,0
266,546,Give And Go Prepared Foods Finch Bakery,6650 Finch Avenue West,M9W 5Y6,43.7339,-79.6074,311814,Commercial Bakeries & Frozen Product Mfg.,265,,David Cattle,416-675-0114,Director Engineering Facilities,416-675-0114,,,25,Volatile Organic Compounds (VOCs) Total,42,0,745,787,0,0,0,0
267,565,Van Rob Inc North York,114 Clayson Road,M9M 2H2,43.7245,-79.5261,336390,Other Motor Vehicle Parts Mfg.,342,,Lucian Maduta,416-740-2656,Plant Manager,416-740-2656,,,24,Particulate Matter 2.5 (PM2.5),108,0,0,108,0,0,0,0
268,569,City Of Toronto Ashbridges Bay Wastewater Treatment Plant,9 Leslie Street,M4M 3M9,43.6563,-79.3261,221320,Sewage Treatment Facilities,174,,Mohsen Karizmeh,416-392-8335,Regulatory Compliance Analyst,437-245-5685,,,5,Cadmium and its compounds,0,448,0,0,0,422,0,0
269,570,City Of Toronto Highland Creek Treatment Plant,51 Beechgrove Drive,M1E 3Z3,43.7654,-79.1522,221320,Sewage Treatment Facilities,57,,Mohsen Karizmeh,416-392-8335,Regulatory Compliance Analyst,437-245-5685,,,5,Cadmium and its compounds,0,139,0,1,0,135,0,0
270,571,City Of Toronto Humber Wastewater Treatment Plant,130 The Queensway,M8Y 1H9,43.6311,-79.481,221320,Sewage Treatment Facilities,61,,Mohsen Karizmeh,416-392-8335,Regulatory Compliance Analyst,437-245-5685,,,5,Cadmium and its compounds,0,232,0,0,0,210,0,0
271,571,City Of Toronto Humber Wastewater Treatment Plant,130 The Queensway,M8Y 1H9,43.6311,-79.481,221320,Sewage Treatment Facilities,61,,Mohsen Karizmeh,416-392-8335,Regulatory Compliance Analyst,437-245-5685,,,25,Volatile Organic Compounds (VOCs) Total,825,0,0,825,0,0,0,0
272,25809,JSG Auto,1770 Albion Rd,M9V 1C2,43.7442,-79.604,811121,"Automotive Body, Paint & Interior R&M",2,,JAGMOHAN SINGH,647-648-4680,MANAGER,647-648-4680,,,24,Particulate Matter 2.5 (PM2.5),188,0,0,188,0,0,0,0
273,25980,Revive Auto Collision Inc.,176 Toryork Dr,M9L 1X6,43.76,-79.5567,811121,"Automotive Body, Paint & Interior R&M",1,,Rickey Ishmael,416-745-2267,Owner,416-745-2267,,,25,Volatile Organic Compounds (VOCs) Total,0,0,69,69,0,0,0,0
274,26036,ASSURED Etobicoke,41 Atomic Ave,M8Z 5K8,43.6206,-79.5416,811121,"Automotive Body, Paint & Interior R&M",15,,Kim Miller,647-243-3555,Director Env Health and Safety,877-743-7237,,,25,Volatile Organic Compounds (VOCs) Total,0,0,121,121,0,0,0,0
275,579,Fermar Asphalt Limited,1921 Albion Road,M9W 5S8,43.7466,-79.6202,324121,Asphalt Paving Mixture & Block Mfg.,3,,Kevin Martin,416-675-3550,Project Manager,416-675-3550,,,14,Formaldehyde,390,0,0,390,0,0,0,0
276,604,Nienkamper Furniture  Accessories Inc,257 Finchdene Square,M1X 1B9,43.821,-79.2352,337213,Wood Office Furniture Mfg.,120,,Romesh Jayarajah,416-298-5700,CFO,416-297-2453,,,25,Volatile Organic Compounds (VOCs) Total,0,16268,0,16268,0,0,0,0
277,26115,GFL Environmental Inc Vickers,85 Vickers Rd,M9B 1C1,43.6246,-79.5542,562910,Remediation Services,3,,Grimaud Montignon,416-231-4333,VP Soil Services,416-236-9907,,,23,Nitrogen Oxides (NOx),689,0,0,689,0,0,0,0
278,26115,GFL Environmental Inc Vickers,85 Vickers Rd,M9B 1C1,43.6246,-79.5542,562910,Remediation Services,3,,Grimaud Montignon,416-231-4333,VP Soil Services,416-236-9907,,,17,Mercury and its compounds,0,5,0,0,0,0,0,0
279,29264,Wonder Brands Inc.,514 Carlingview Drive,M9W 5R3,43.7037,-79.6032,311990,All Other Food Mfg.,204,,Sriram Ananda Padmanaban,416-252-7323,Sustainability Manager,437-217-9516,,,23,Nitrogen Oxides (NOx),3280,0,0,3280,0,0,0,0
280,29273,Voyant Beauty Inc.,13 Bethridge Road,M9W 1M6,43.7086,-79.5674,325610,Soap & Cleaning Compound Mfg.,310,,Julio Santos,416-470-7400,EHS Manager,416-740-7400,391,,24,Particulate Matter 2.5 (PM2.5),107,0,0,107,0,0,0,0
281,24533,Dakar Inc,204 Toryork Drive,M9L 1Y1,43.7608,-79.5599,321920,Wood Container & Pallet Mfg.,3,,DAKAR ZAZA,416-663-8221,DIRECTOR,416-993-6551,,,,,,,,,,,,
282,24336,Jay Leatherkraft Limited,219 Norseman St,M8Z 2R5,43.6239,-79.5066,339940,Office Supplies (except Paper) Mfg.,16,,Richard Rose,416-536-2109,Director,416-536-2109,,416-531-1863,,,,,,,,,,
283,22534,Pure Cleaners,544 Eglinton Ave W,M5N 1B4,43.7033,-79.4147,812320,Dry Cleaning & Laundry Serv. (exc. Coin-Op.),5,,Ju Hee Han,416-483-8985,co-owner,647-224-7981,,,,,,,,,,,,
284,22162,Florentina Foods Ltd,760 Supertest Rd  ,M3J 2M5,43.7759,-79.4788,311990,All Other Food Mfg.,38,,Seema Ghandi,416-661-0906,Bookkeeper,416-661-0906,,,,,,,,,,,,
285,58,TecniGlas A Division Of ProScience Inc,92 Railside Road,M3A 1A3,43.7359,-79.3246,416340,"Paint, Glass & Wallpaper Whl.",18,www.tecniglas.com,Anne Gomes,416-446-6411,,416-446-6411,,,,,,,,,,,,
286,26116,Prep Culinary a div. of TEJA Global Ltd.,315 Humberline Dr,M9W 5T6,43.741,-79.6196,311990,All Other Food Mfg.,60,,Greg Murr,647-966-3175,COO,647-966-3175,,,,,,,,,,,,
287,407,SAE Power Company,1810 Birchmount Road,M1P 2H7,43.7663,-79.2917,335990,All Other Electrical Equip. & Component Mfg.,53,,Ruth Harms,416-298-0560,Corporate Controller,416-298-0560,,416-298-0806,,,,,,,,,,
288,252,The Printing House Limited Branch 052,1126 Finch Avenue West,M3J 3J6,43.7667,-79.4768,323119,Other Printing,5,,Steve Pryde,416-736-8615,Manager,416-736-8615,,416-736-8672,,,,,,,,,,
289,467,Toronto Transit Commission Arrow Road Garage,700 Arrow Road,M9M 2M1,43.7475,-79.5303,485110,Urban Transit Systems,119,,Shaun DeSouza,416-393-4881,Manager Environment,416-554-1299,,,,,,,,,,,,
290,26005,Campus Auto Collision & Heavy Equipment Refinishing,45 Lepage CRT,M3J 2A2,43.7584,-79.4856,811121,"Automotive Body, Paint & Interior R&M",23,,Lucio Di Iorio,416-638-1022,owner,416-638-1022,,,,,,,,,,,,
291,22803,EMI RFI Shield Plating Inc,123 Manville Road,M1L 4J7,43.7245,-79.2826,332810,"Coating, Engraving & Heat Treating Activities",37,,Malcolm Mckay,416-759-6731,Environmental Manager,416-759-6731,,,,,,,,,,,,
292,293,Top Cleaners,5512 Lawrence Ave E,M1C 3B2,43.7793,-79.1382,812320,Dry Cleaning & Laundry Serv. (exc. Coin-Op.),1,,Mehran Ghassemian,416-281-2340,Owner,416-281-2340,,,,,,,,,,,,
293,23942,University Health Network Toronto Rehab Lyndhurst Centre,520 Sutherland Drive,M4G 3V9,43.7183,-79.3693,622111,General (exc. Paediatric) Hospitals,300,www.uhn.ca,Michael Kurz,416-597-3422,Director Env Compl Energy,416-456-7520,,,,,,,,,,,,
294,610,GH Hogle Funeral Home Limited Mimico Chapel,63 Mimico Ave,M8V 1R2,43.6131,-79.4925,812210,Funeral Homes,6,,Graeme Hogle,416-251-7531,President,416-251-7531,,416-251-5236,,,,,,,,,,
295,23772,Flavorcan International Inc,145 Dynamic Drive,M1V 5L8,43.8279,-79.2523,311990,All Other Food Mfg.,42,,Narayan Ghimire,416-321-2124,Technical Manager,416-321-2124,,416-321-8231,,,,,,,,,,
296,24699,Acme Shelving And Store Fixtures,360 Magnetic Dr,M3J 2C4,43.7829,-79.4737,453999,"All Other Misc. Store Retailers, n.e.c.",11,,Carlos De Sousa,416-661-2442,Owner Partner,416-661-2442,,,,,,,,,,,,
297,23423,Terrazzo Mosaic Tile Co Ltd,900 Keele Street,M6N 3E7,43.6793,-79.4704,232420,Terrazzo & Tile Work,65,,Enzo Costantino,416-653-6111,Controller,416-653-6111,,416-653-2594,,,,,,,,,,
298,25031,Deer Park Collision Center,151 Toryork Drive,M9L 1X9,43.7581,-79.5549,811121,"Automotive Body, Paint & Interior R&M",1,,Terry Persaud,416-930-1844,Owner,416-930-1844,,,,,,,,,,,,
299,25400,ERCO Worldwide RD Lab,335 Carlingview Dr,M9W 5G8,43.6965,-79.5998,541380,Testing Laboratories,13,,Vladimir Plashnitsa,416-234-7515,Manager Research and Development,416-234-7515,,,,,,,,,,,,
300,23099,The Printing House Limited Branch 056,777 Bay Street Concourse Level,M5G 2C8,43.6602,-79.3856,323119,Other Printing,4,,Frank Rho,416-593-8428,Manager,416-593-8428,,,,,,,,,,,,
301,23860,Patrick Lin,2 Select Avenue,M1V 5J4,43.8297,-79.2653,332710,Machine Shops,3,,PATRICK LIN,416-335-8735,MANAGER,416-335-8735,,416-335-4103,,,,,,,,,,
302,25139,Saand Rexdale,355 Attwell Drive,M9W 5C2,43.7046,-79.5985,339990,All Other Miscellaneous Mfg.,100,,Mark Franklin,416-674-6945,President,416-798-0440,,,,,,,,,,,,
303,23769,Fortress Technology Inc,51 Grand Marshall Dr,M1B 5N6,43.802,-79.1944,335315,"Switchgear, Relay & Industrial Control Mfg.",110,,Bruce Smith,416-754-2898,Production Manager,416-754-2898,,,,,,,,,,,,
304,25377,Holman Exhibits Limited,160 Lesmill Road,M3B 2T5,43.76,-79.3584,339950,Sign Mfg.,68,,Irene Maltsev,416-441-1877,Controller,416-275-4665,,,,,,,,,,,,
305,29297,Commercial Bakeries Corp.,45 Torbarrie Rd,M3L 1G5,43.7224,-79.5217,311814,Commercial Bakeries & Frozen Product Mfg.,400,,Gregory Espinet,416-247-5478,Plant Manager,416-247-5478,,,,,,,,,,,,
306,22953,Summer's Sweet Memories,101 Yorkville Ave,M5R 1C1,43.6709,-79.3924,311520,Ice Cream & Frozen Dessert Mfg.,9,,Ron Tokey,416-944-2637,Owner,416-606-8055,,,,,,,,,,,,
307,246,The Printing House Limited Branch 057,379 Adelaide Street West,M5V 1S5,43.6466,-79.3962,323119,Other Printing,6,,Vito Ruffolo,416-598-4280,General Manager,416-598-4280,,416-598-7824,,,,,,,,,,
308,390,Eglinton Dry Cleaners Ltd,2926 Eglinton Ave East,M1J 2E4,43.7395,-79.2356,812320,Dry Cleaning & Laundry Serv. (exc. Coin-Op.),1,,ABBAS HEYDARI,416-431-6095,OWNER,416-431-6095,,,,,,,,,,,,
309,23067,The Printing House Limited Branch 003,100 King Street West First Canadian Place Concourse Level,M5X 1C8,43.6484,-79.3815,323119,Other Printing,7,,Delvin Goberdhan,416-366-8884,General Manager,416-366-8884,,416-366-8884,,,,,,,,,,
310,25922,Centre For Commercialization Of Regenerative Medicine,661 University Avenue,M5G1M1,43.6595,-79.3896,541710,"R&D in the Physical, Eng. & Life Sciences",89,,Manuel Alvarez,416-978-3751,Biosafety Officer,416-946-8884,,,,,,,,,,,,
311,24393,University Of Toronto Ramsay Wright Zoology Building,25 Harbord Street,M5S 3G5,43.6637,-79.399,611310,Universities,72,,Matthew White,416-717-9084,Enviro Compliance  Safety Tech,416-978-5087,,,,,,,,,,,,
312,25711,Alarman Auto Care Inc,"600 Danforth Rd, Rear",M1K 1E7,43.7135,-79.262,811121,"Automotive Body, Paint & Interior R&M",1,,Tariq Butt,647-344-4444,OWNER,647-344-4444,,,,,,,,,,,,
313,29286,CSN Formula,2240 Markham Road,M1B 2W4,43.8104,-79.2432,811121,"Automotive Body, Paint & Interior R&M",8,,Jeff Norris,416-123-4567,CIIAHARA Executive Director,905-912-0732,,,24,Particulate Matter 2.5 (PM2.5),421,0,0,63,0,0,0,0
314,29294,GIP Paving Inc. Leaside HMA Plant,37 Commercial Road,M4G 1Z3,43.7098,-79.3569,324121,Asphalt Paving Mixture & Block Mfg.,2,,Stefanie Spencer,416-421-1116,Manager Environment,416-633-9670,,,23,Nitrogen Oxides (NOx),250,0,0,250,0,0,0,0
315,10013,Array Marketing Group Inc,45 Progress Ave,M1P 2Y6,43.7696,-79.2778,326198,All Other Plastic Product Mfg.,517,,Etai Kedem,416-299-4865,General Manager,416-299-4865,149,,13,Dichloromethane (Methylene chloride),0,0,321,321,0,0,0,0
316,10013,Array Marketing Group Inc,45 Progress Ave,M1P 2Y6,43.7696,-79.2778,326198,All Other Plastic Product Mfg.,517,,Etai Kedem,416-299-4865,General Manager,416-299-4865,149,,25,Volatile Organic Compounds (VOCs) Total,0,0,1132,1132,0,0,0,0
317,15141,White Knight Kitchen Inc,220 North Queen St,M9C 4Y1,43.6169,-79.5577,321919,Other Millwork,10,,Antonio Tavares,416-620-6544,VP,416-620-6544,,,25,Volatile Organic Compounds (VOCs) Total,1,4000,0,4000,0,0,0,0
318,21862,Beatty Machine And Tool Works Ltd,103 Crockford Blvd,M1R 3B7,43.7434,-79.2898,332118,Stamping,13,www.beatty-machine.com,Kirk Beatty,416-755-3341,President,416-755-3341,,416-755-8857,25,Volatile Organic Compounds (VOCs) Total,0,0,1,1,0,0,0,0
319,22232,Gemtex Abrasives,234 Belfield Road,M9W 1H3,43.6998,-79.5848,327910,Abrasive Product Mfg.,45,,Dinesh Patel,416-245-5605,VP Manufacturing,416-245-5605,,,25,Volatile Organic Compounds (VOCs) Total,0,0,3588,868,0,0,0,0
320,22281,Vision Coaters Canada Ltd,73 Penn Drive,M9L 2A6,43.7534,-79.5581,332810,"Coating, Engraving & Heat Treating Activities",35,,Michael Nguyen,416-746-2988,QA Manager,416-746-2988,,,24,Particulate Matter 2.5 (PM2.5),83,0,0,83,0,0,0,0
321,22518,McCowan Design and Manufacturing,1760 Birchmount Road,M1P 2H7,43.7636,-79.2914,331221,Cold-Rolled Steel Shape Mfg.,50,,James Chabot,416-291-7111,Operations Manager,416-291-7111,,,9,"Chromium, Non-Hexavalent and its compounds",0,8115,0,0,0,0,0,0
322,22519,Ocean Food Company,3 Turbina Avenue,M1V 5G3,43.827,-79.2505,311710,Seafood Product Preparation & Packaging,35,,Daniel Leung,416-285-6487,Director Of Sales,416-285-6487,,,24,Particulate Matter 2.5 (PM2.5),267,0,0,0,0,0,0,0
323,22891,Mariani Metal Fabricators Limited,263 Carrier Drive,M9W 5Y8,43.7509,-79.6141,332999,All Other Misc. Fabricated Metal Product Mfg.,66,,Venkat Ramaraju,416-798-2969,CFO,416-798-2969,,,16,Manganese and its compounds,0,2059,0,0,0,0,0,0
324,22891,Mariani Metal Fabricators Limited,263 Carrier Drive,M9W 5Y8,43.7509,-79.6141,332999,All Other Misc. Fabricated Metal Product Mfg.,66,,Venkat Ramaraju,416-798-2969,CFO,416-798-2969,,,9,"Chromium, Non-Hexavalent and its compounds",0,5823,0,0,0,0,0,0
325,22933,Garyray Auto Collision Ltd,187 Toryork Dr,M9L 1X9,43.7601,-79.5583,811121,"Automotive Body, Paint & Interior R&M",15,,Sandro Perruzza,416-745-9300,General Manager,416-745-9300,,,25,Volatile Organic Compounds (VOCs) Total,0,0,749,677,0,0,0,0
326,23054,KIK Operating Partnership,2000 Kipling Avenue,M9W 4J6,43.71,-79.5659,325610,Soap & Cleaning Compound Mfg.,298,,Kimberly Clark,416-740-7400,Manager Of EHS,416-740-7400,,,24,Particulate Matter 2.5 (PM2.5),54,0,0,54,0,0,0,0
327,23073,Canadian Linen Uniform Service Co,75 Norfinch Drive,M3N 1W8,43.7596,-79.5289,812330,Linen & Uniform Supply,130,,Andrew Steiner,416-849-5100,Sr VP Of Canadian Operations,416-354-3100,,,24,Particulate Matter 2.5 (PM2.5),1241,0,0,1241,0,0,0,0
328,23077,Cintas Canada Limited,1110 Flint Road,M3J 2J5,43.7778,-79.4815,812330,Linen & Uniform Supply,101,,Denis Gveric,416-743-5070,Plant Manager,416-743-5070,,416-743-6008,24,Particulate Matter 2.5 (PM2.5),57,0,0,57,0,0,0,0
329,23107,Cintas Canada limited,940 Warden Avenue,M1L 4C9,43.7322,-79.2894,812330,Linen & Uniform Supply,160,,Michael Labocha,416-751-4100,Env Engineer,647-468-7025,,,25,Volatile Organic Compounds (VOCs) Total,72,0,20331,5223,0,0,0,0
330,23174,Kilian Canada ULC,75 Torlake Crescent,M8Z 1B7,43.613,-79.5269,332991,Ball & Roller Bearing Mfg.,40,,Wolney Rodrigues,416-252-5936,Plant Manager,289-806-6579,,,15,Lead and its compounds,0,1495,0,0,0,0,0,0
331,23178,Coyle Corrugated Containers Inc,5600 Finch Ave E,M1B 1T1,43.8136,-79.2404,323119,Other Printing,85,coylecor.com,Robert MacLennan,416-291-2963,Quality Assurance Manager,416-291-2963,231,416-291-3899,25,Volatile Organic Compounds (VOCs) Total,0,910,0,910,0,0,0,0
332,23213,Superior Auto Centre Ltd,228 Norseman Street,M8Z 2R4,43.632,-79.5289,811121,"Automotive Body, Paint & Interior R&M",7,,Daniel Tsatsos,416-236-1175,Manager,416-236-1175,,416-236-3610,24,Particulate Matter 2.5 (PM2.5),295,0,0,44,0,0,0,0
333,23277,427 Auto Collision Ltd,395 Evans Avenue,M8Z 1K8,43.6156,-79.527,811121,"Automotive Body, Paint & Interior R&M",65,,Enzo Armata,416-259-6344,Controller,416-259-6344,,416-259-4063,23,Nitrogen Oxides (NOx),132,0,0,105,0,0,0,0
334,23277,427 Auto Collision Ltd,395 Evans Avenue,M8Z 1K8,43.6156,-79.527,811121,"Automotive Body, Paint & Interior R&M",65,,Enzo Armata,416-259-6344,Controller,416-259-6344,,416-259-4063,25,Volatile Organic Compounds (VOCs) Total,0,0,122,122,0,0,0,0
335,23296,Bellwyck Packaging,21 Finchdene Sq,M1X 1A7,43.8163,-79.2318,323119,Other Printing,50,,Jerry Malfara,416-752-1210,Plant Manager,416-752-1210,,,25,Volatile Organic Compounds (VOCs) Total,0,0,2846,2699,0,0,0,0
336,23365,Scarborotown Dodge Chrysler,4960 Sheppard Ave E,M1S 4A7,43.7923,-79.2464,811121,"Automotive Body, Paint & Interior R&M",7,,Rick Kirk,416-298-7600,Manager,416-298-7600,,416-412-4401,24,Particulate Matter 2.5 (PM2.5),295,0,0,15,0,0,0,0
337,23369,Massive Auto Collision,1361 DuPont Street,M6H 2A9,43.6669,-79.4457,811121,"Automotive Body, Paint & Interior R&M",6,,Tony Staffiere,416-533-3884,Manager,416-533-3884,,416-533-9015,25,Volatile Organic Compounds (VOCs) Total,0,0,837,827,0,0,0,0
338,23433,Castle Auto Collision  Mechanical Service,1117 Castlefield Ave,M6B 1E8,43.7004,-79.453,811121,"Automotive Body, Paint & Interior R&M",8,,Chris Borson,416-789-4179,Manager,416-789-4179,,416-789-4170,24,Particulate Matter 2.5 (PM2.5),211,0,0,11,0,0,0,0
339,23497,Inline Fiberglass Ltd,30 Constellation Court,M9W 1K1,43.691,-79.5964,326198,All Other Plastic Product Mfg.,100,,Tom Rokicki,416-679-1171,Operations Manager,416-679-1171,,416-569-1150,24,Particulate Matter 2.5 (PM2.5),0,233436,0,467,0,0,0,0
340,23504,CK Collision Centres,514 Centennial Rd N,M1C 2A6,43.7934,-79.1533,811121,"Automotive Body, Paint & Interior R&M",4,,Terry Bradimore,416-281-9394,Manager,416-281-9394,,,24,Particulate Matter 2.5 (PM2.5),226,0,0,226,0,0,0,0
341,23514,SC Electric Canada Ltd,90 Belfield Road,M9W 1G4,43.703,-79.5713,335315,"Switchgear, Relay & Industrial Control Mfg.",360,,Laura Cudizio,416-249-9171,Manager Health Safety Envt,416-249-9171,3288,,23,Nitrogen Oxides (NOx),1056,0,0,1056,0,0,0,0
342,23517,Fiera Foods Company,50 Marmora Street,M9M 2X5,43.7189,-79.526,311814,Commercial Bakeries & Frozen Product Mfg.,600,,David Gelbloom,416-746-1010,Exec Administrator,416-746-1010,,,25,Volatile Organic Compounds (VOCs) Total,125600,0,0,125600,0,0,0,0
343,23836,Wing's Food Products,550 Kipling Avenue,M8Z 5E9,43.6146,-79.5238,311990,All Other Food Mfg.,30,,Norel Covaci,416-259-0202,Sr Eng Manager,416-259-0202,,416-792-3183,23,Nitrogen Oxides (NOx),1343,0,0,1343,0,0,0,0
344,23844,FTG Circuits,250 Finchdene Square,M1X 1A5,43.8211,-79.2346,335990,All Other Electrical Equip. & Component Mfg.,181,,Loreile Llave,416-299-4000,Lab And Environment Supervisor,416-299-4000,313,,15,Lead and its compounds,0,1181,0,0,0,0,0,0
345,23866,Manoucher Fine Food Inc,703 Clayson Rd,M9M 2H4,43.7276,-79.5286,311814,Commercial Bakeries & Frozen Product Mfg.,25,,Angelina Cherepakha,416-747-1234,Bookkeeper,416-747-1234,,416-747-7005,25,Volatile Organic Compounds (VOCs) Total,1128,0,0,1128,0,0,0,0
346,23911,Falcon Fasteners,251 Nantucket Blvd,M1P 2P2,43.76,-79.2758,332619,Other Fabricated Wire Product Mfg.,125,,Peter Firth,416-751-8284,EHS Officer,416-751-8284,,,25,Volatile Organic Compounds (VOCs) Total,0,0,5000,4000,0,0,0,0
347,23954,Acadian Platers CoLtd,315 Rexdale Blvd,M9W 1R8,43.7143,-79.5832,332810,"Coating, Engraving & Heat Treating Activities",30,,Karanjot Kang,416-743-7130,Corp Manager Quality Environment,905-564-1711,,905-564-2819,18,Nickel and its compounds,0,2447,0,0,0,0,0,0
348,23990,Durapaint Industries Limited,247 Finchdene Square,M1X 1B9,43.8211,-79.2348,232990,All Other Special Trade Contracting,84,,Domenic Zarlenga,416-754-3664,Vice President,416-743-3664,,,23,Nitrogen Oxides (NOx),2560,0,0,2560,0,0,0,0
349,24058,Deco Automotive,225 Claireville Drive,M9W 6K9,43.7458,-79.6256,332118,Stamping,566,,Hena Alam,416-674-5598,Coordinator HSE,416-674-5598,2150,,24,Particulate Matter 2.5 (PM2.5),87,0,0,87,0,0,0,0
350,42,Viasystems Toronto Inc A Member Company Of TTM Technologies Group,8150 Sheppard Avenue East,M1B 5K2,43.8027,-79.1969,334410,Semiconductor & Electronic Component Mfg.,550,,Mark Scruton,416-208-2100,Director Of EHS AMII BU,416-453-1594,,416-208-2193,18,Nickel and its compounds,0,1016,0,0,0,0,0,0
351,114,Polytarp Products,350 Wildcat Rd,M3J 2N5,43.7766,-79.4914,326114,Plastic Film and Sheet Manufacturing,125,,Farhad Nouri,416-661-1750,Plant Manager,416-661-1750,,416-661-1757,25,Volatile Organic Compounds (VOCs) Total,450,0,0,0,0,0,0,0
352,120,Black Creek Dry Cleaners,1635 Lawrence Ave W,M6L 3C9,43.7054,-79.492,812320,Dry Cleaning & Laundry Serv. (exc. Coin-Op.),2,,Jin Mo Park,416-248-9862,Owner,416-248-9862,,,19,Tetrachloroethylene (Perchloroethylene),0,0,108,53,0,0,0,0
353,178,Nestle Foods Group Sterling Road Nestle Canada Inc,72 Sterling Road,M6R 2B6,43.6526,-79.4441,311330,Confectionery Mfg. from Purchased Chocolate,472,,Jacqueline Widjaja,416-535-2181,Environmental Specialist,416-535-2181,,,25,Volatile Organic Compounds (VOCs) Total,247,0,378,625,0,0,0,0
354,180,Battenfeld Grease Canada Ltd,68 Titan Road,M8Z 2J8,43.6296,-79.524,324190,Other Petroleum & Coal Products Mfg.,29,,Roger Corteling,416-239-1548,General Manager,416-239-1548,,,23,Nitrogen Oxides (NOx),0,0,0,0,0,0,0,0
355,24112,MW Metal Spinning Ltd,60 Alness Street,M3J 2G9,43.773,-79.4729,331221,Cold-Rolled Steel Shape Mfg.,3,,Annette Goldstein,416-661-8003,President,416-661-8003,,416-661-4355,23,Nitrogen Oxides (NOx),0,5,0,0,0,0,0,0
356,24126,Modern Laundry and Dry Cleaners,282 Dupont Street West,M5R 1V9,43.6748,-79.4075,812320,Dry Cleaning & Laundry Serv. (exc. Coin-Op.),10,,Dee Chauhan,416-923-8966,Manager,416-923-8966,,,19,Tetrachloroethylene (Perchloroethylene),0,0,351,20,0,0,0,0
357,24129,New Forest Paper Mills LP,333 Progress Avenue,M1P 2Z7,43.7745,-79.2662,322130,Paperboard Mills,94,,Fatima Correia,416-298-8101,Environmental Manager,416-298-5431,,416-297-2292,24,Particulate Matter 2.5 (PM2.5),1591,0,0,1591,0,0,0,0
358,24146,Dufferin Concrete Scarborough,1940 McCowan Road,M1S 4K1,43.7935,-79.2604,327320,Ready-Mix Concrete Mfg.,27,,Maria Topalovic,416-677-6752,Environmental Manager,647-924-5500,,,24,Particulate Matter 2.5 (PM2.5),0,82,0,82,0,0,0,0
359,24147,Ontario Redimix Etobicoke,21 Goodmark Place,M9W 6P9,43.7534,-79.6166,327320,Ready-Mix Concrete Mfg.,63,,Maria Topalovic,416-213-5246,Environmental Manager,647-924-5501,,,24,Particulate Matter 2.5 (PM2.5),0,137,0,137,0,0,0,0
360,223,Salflex Polymers,1925 Wilson Ave,M9M 1A9,43.716,-79.5307,325991,Custom Compounding of Purchased Resins,40,,Peter Lee,416-741-0273,Process Engineering Manager,416-741-0273,224,,23,Nitrogen Oxides (NOx),254,0,0,254,0,0,0,0
361,233,Jacobs & Thompson Inc.,89 Kenhar Drive,M9L 2R3,43.7616,-79.5451,326150,Urethane & Miscellaneous Foam Product Mfg.,101,,Farshad Riazati,416-749-0600,Maintenance Manager,416-749-0600,,,25,Volatile Organic Compounds (VOCs) Total,0,0,20000,20000,0,0,0,0
362,235,BASF Canada,10 Constellation Court,M9W 1K1,43.6912,-79.5962,325210,Resin & Synthetic Rubber Mfg.,51,,David M Peters,289-360-6072,Senior EHS Specialist,289-360-6072,,,25,Volatile Organic Compounds (VOCs) Total,45,683358,0,6848,0,0,0,0
363,253,Atlantic Packaging 120 Tiffield Road,120 Tiffield Road,M1V 5N2,43.8165,-79.2565,323119,Other Printing,96,,Fatima Correia,416-298-8101,Environmental Manager,416-298-5431,,,25,Volatile Organic Compounds (VOCs) Total,11,0,268,279,0,0,0,0
364,275,Toronto Research Chemicals,2 Brisbane Road,M3J 2J8,43.7739,-79.4707,325410,Pharmaceutical & Medicine Mfg.,150,,Andrew Karagias,416-665-9696,Corporate Project Manager,416-665-9696,,,17,Mercury and its compounds,0,0,58,0,0,0,0,0
365,285,RPM Canada Company Tremco Canada Division,220 Wicksteed Ave,M4H 1G7,43.7133,-79.3473,325510,Paint & Coating Mfg.,225,,Nawid Bakhshi,416-467-2447,Environmental Coordinator,416-467-2447,,416-467-2452,23,Nitrogen Oxides (NOx),3400,0,0,3400,0,0,0,0
366,24201,Trillium Health Partners Queensway Health Centre,150 Sherway Drive,M9C 1A5,43.6088,-79.5616,622111,General (exc. Paediatric) Hospitals,569,,Ryan Knox,905-848-7580,Manager Corporate Services,905-848-7580,,,24,Particulate Matter 2.5 (PM2.5),62,0,0,62,0,0,0,0
367,24203,Trench Limited Maybrook,71 Maybrook Drive,M1V 4B6,43.8249,-79.261,335311,Transformer (except Electronic) Mfg.,197,,Peter Tresp,416-298-8108,EHS Manager,647-925-9650,,,24,Particulate Matter 2.5 (PM2.5),58,0,0,58,0,0,0,0
368,24218,Teva Canada Ltd,30 Novopharm Court,M1B 2K9,43.7894,-79.2296,561910,Packaging & Labelling Services,600,,Fanche Lovacev,416-291-8888,Manager Environment And Safety,416-940-6458,,,25,Volatile Organic Compounds (VOCs) Total,19,0,1751,1770,0,0,0,0
369,24222,Crown Metal Packaging Canada LP Weston Plant,21 Fenmar Drive,M9L 2Y9,43.7591,-79.5359,332431,Metal Can Mfg.,190,,Maria Paula Gomez,416-741-6002,EHS Coordinator,437-318-8031,,,23,Nitrogen Oxides (NOx),6666,0,0,6666,0,0,0,0
370,24232,693316 Ontario Limited Horner Avenue,200 Horner Ave,M8Z 4X8,43.6078,-79.5178,327320,Ready-Mix Concrete Mfg.,1,,Domenic Suppa,416-255-7637,CFO,416-798-7060,,,24,Particulate Matter 2.5 (PM2.5),91,0,0,91,0,0,0,0
371,24238,Mersen Canada Dn Ltd,496 Evans Ave,M8W 2T7,43.6131,-79.5383,335990,All Other Electrical Equip. & Component Mfg.,60,,Claudio Clemente,416-251-2334,Operations Excellence Manager,937-299-4514,,,15,Lead and its compounds,0,1958,0,1,0,0,0,0
372,294,NutriAg Ltd,39 Gail Grove,M9M 1M5,43.7379,-79.5307,115110,Support Activities for Crop Production,55,www.nutriag.com,Lucia Ko,416-636-1555,VP Supply Chain,416-572-1962,,416-636-2681,16,Manganese and its compounds,0,24856,2000,0,0,0,0,0
373,295,Global Contract Inc,565 Petrolia Road,M3J 2X8,43.7737,-79.4883,337127,Institutional Furniture Mfg.,430,,Brian Covello,416-739-5000,Vice President and GM,416-739-5000,5086,,23,Nitrogen Oxides (NOx),866,0,0,866,0,0,0,0
374,299,Warren's Waterless Printing Inc,711 Clayson Road,M9M 2H4,43.7281,-79.5279,323119,Other Printing,15,,Susan Warren,416-745-8200,Environmental Coordinator,416-745-8200,,416-747-7199,25,Volatile Organic Compounds (VOCs) Total,0,2325,0,1648,0,0,0,0
375,315,Apotex Etobicoke,50 Steinway Boulevard,M9W 6Y3,43.7504,-79.6244,325410,Pharmaceutical & Medicine Mfg.,883,,Michael Taniguchi,416-675-0338,Associate Director EHS Programs,647-262-6903,,,23,Nitrogen Oxides (NOx),23618,0,0,23618,0,0,0,0
376,321,Apotex Special Products Facility,285 Garyray Drive,M9L 1P3,43.769,-79.5394,325410,Pharmaceutical & Medicine Mfg.,24,,Michael Taniguchi,416-749-9300,Associate Director EHS Programs,647-262-6903,,,25,Volatile Organic Compounds (VOCs) Total,0,0,821,821,0,0,0,0
377,360,Molson Coors Canada,1 Carlingview Drive,M9W 5E5,43.674,-79.5897,312120,Breweries,621,,Tan Le,416-571-8917,General Manager,416-688-1898,,,25,Volatile Organic Compounds (VOCs) Total,771,36818,0,27968,0,0,0,0
378,24266,D Crupi And Sons Limited Brimley Crushing Plant,477 Brimley Rd,M1J 1A2,43.7325,-79.2462,212315,Limestone Mining & Quarrying,5,,Domenic Passalacqua,416-291-1986,Plant Manager,416-291-1986,,416-291-3252,24,Particulate Matter 2.5 (PM2.5),55,0,0,55,0,0,0,0
379,24270,Moveable Inc,67 Mowat Avenue,M6K 3E3,43.6384,-79.4257,323119,Other Printing,32,,Melvin Gallardo,416-532-5690,Owner,416-532-5690,2245,416-532-0783,25,Volatile Organic Compounds (VOCs) Total,0,43,349,134,0,0,0,0
380,24278,Viva Media Packaging Canada Limited,5373 Finch Avenue E,M1S 5W2,43.8115,-79.2499,326198,All Other Plastic Product Mfg.,492,,Stuart Bailey,416-412-3553,Principal  OSB Consulting,519-240-6939,,,25,Volatile Organic Compounds (VOCs) Total,0,0,2591,2591,0,0,0,0
381,24282,Viscor Inc,35 Oak Street,M9N 1A1,43.7087,-79.529,335120,Lighting Fixture Mfg.,202,,Steven Anderson,416-245-7991,Director Of Operations,416-245-7991,,,24,Particulate Matter 2.5 (PM2.5),93,0,0,93,0,0,0,0
382,24287,Airborn Flexible Circuits Inc,11 Dohme Ave,M4B 1Y7,43.7116,-79.3116,334410,Semiconductor & Electronic Component Mfg.,190,,Peter Pialis,416-752-2224,Director Of Engieering,416-285-3825,,,14,Formaldehyde,0,0,215,2,0,0,0,0
383,24322,York University Faculty Of Health And Science,4700 Keele St,M3J 1P3,43.7745,-79.494,611310,Universities,1020,,Tomorr Cerriku,416-736-2100,Health  Safety Advisor,416-736-5949,,,16,Manganese and its compounds,0,0,63,0,0,0,0,0
384,24335,Westown Dry Cleaners,235 Dixon Rd,M9P 2M5,43.6967,-79.5439,812320,Dry Cleaning & Laundry Serv. (exc. Coin-Op.),3,,Peter Zumpano,416-241-4512,Coowner,416-241-4512,,,19,Tetrachloroethylene (Perchloroethylene),0,0,375,0,0,0,0,0
385,24344,University Of Toronto Lash Miller Chemical Laboratories,80 St George Street,M5S 3H6,43.662,-79.3976,611310,Universities,80,,Matthew White,416-978-3564,Enviro Compliance  Safety Tech,416-978-5087,,,25,Volatile Organic Compounds (VOCs) Total,0,0,17725,3545,0,0,0,0
386,24363,Vienna Meats,170 Nugget Avenue,M1S 3A7,43.7952,-79.253,311614,Rendering & Meat Processing from Carcasses,150,,Bill Baker,416-297-1062,Senior Manager  Risk  Env,780-472-4873,,780-472-4951,23,Nitrogen Oxides (NOx),465,0,0,465,0,0,0,0
387,363,Lincoln Electric Company Of Canada,179 Wicksteed Avenue,M4G 2B9,43.712,-79.3547,332999,All Other Misc. Fabricated Metal Product Mfg.,247,,Rick Ash,416-421-2600,Operations Manager,416-421-2600,,,23,Nitrogen Oxides (NOx),4191,0,0,4191,0,0,0,0
388,363,Lincoln Electric Company Of Canada,179 Wicksteed Avenue,M4G 2B9,43.712,-79.3547,332999,All Other Misc. Fabricated Metal Product Mfg.,247,,Rick Ash,416-421-2600,Operations Manager,416-421-2600,,,24,Particulate Matter 2.5 (PM2.5),5496,0,0,5496,0,0,0,0
389,371,Coca-Cola Canada Bottling Limited,24 Fenmar Drive,M9L 1L8,43.759,-79.5366,312110,Soft Drink & Ice Mfg.,140,,Hassan Jalilian,416-749-0440,Continuous ImprovementSpecialist,437-429-5359,,,23,Nitrogen Oxides (NOx),5869,0,0,5869,0,0,0,0
390,411,LANXESS Canada CoCie West Hill,10 Chemical Crt,M1E 3X7,43.7628,-79.1635,324190,Other Petroleum & Coal Products Mfg.,86,,Jeanette Waples,416-284-1661,EHSS Manager,416-724-3643,,416-284-1761,25,Volatile Organic Compounds (VOCs) Total,326,969395,0,51435,0,0,0,0
391,417,Mondelez Canada Inc Scarborough Bakery,370 Progress Avenue,M1P 2Z4,43.775,-79.2647,311821,Cookie & Cracker Mfg.,251,,Dolly Lakshman,416-291-3713,Environmental Manager,647-802-5552,,,23,Nitrogen Oxides (NOx),1281,0,0,1281,0,0,0,0
392,24370,Dupont Auto Collision,810 Dupont Street,M6G 1Z6,43.6709,-79.4255,811121,"Automotive Body, Paint & Interior R&M",13,,Jorge Esteves,416-535-6660,Owner,416-535-6660,,416-535-4421,24,Particulate Matter 2.5 (PM2.5),295,0,0,15,0,0,0,0
393,24370,Dupont Auto Collision,810 Dupont Street,M6G 1Z6,43.6709,-79.4255,811121,"Automotive Body, Paint & Interior R&M",13,,Jorge Esteves,416-535-6660,Owner,416-535-6660,,416-535-4421,25,Volatile Organic Compounds (VOCs) Total,0,0,465,342,0,0,0,0
394,24382,Lynnpak,355 Nugget Ave,M1S 4J2,43.7968,-79.2478,326111,Plastics Bag Manufacturing,30,,Jack Lin,416-321-9707,VP Operations,415-321-9707,,,25,Volatile Organic Compounds (VOCs) Total,0,0,52061,52061,0,0,0,0
395,24555,Smith and Long Contracting Ltd.,133 Bridgeland Ave,M6A 1Y7,43.7255,-79.4634,332999,All Other Misc. Fabricated Metal Product Mfg.,67,,Vince Carbonara,416-781-6166,Controller,416-781-6166,,416-781-6259,9,"Chromium, Non-Hexavalent and its compounds",0,24399,0,14,0,0,0,0
396,24590,WGI Mfg Inc,3 Pullman Court,M1X 1E4,43.8206,-79.238,325999,All Other Misc. Chemical Product Mfg.,21,,Kuldip Keith,416-412-2970,Technical Director,416-412-2970,,416-412-2972,25,Volatile Organic Compounds (VOCs) Total,0,6995,0,6678,0,0,0,0
397,24741,CBM Weston RM Plant,130 Toryork Dr,M9L 1X6,43.7574,-79.5533,327320,Ready-Mix Concrete Mfg.,2,,Colin Evans,416-741-0200,Environment Manager,905-440-5745,,,24,Particulate Matter 2.5 (PM2.5),70,0,0,70,0,0,0,0
398,24741,CBM Weston RM Plant,130 Toryork Dr,M9L 1X6,43.7574,-79.5533,327320,Ready-Mix Concrete Mfg.,2,,Colin Evans,416-741-0200,Environment Manager,905-440-5745,,,23,Nitrogen Oxides (NOx),221,0,0,221,0,0,0,0
399,419,Apotex 4100 Weston,4100 Weston Road,M9L 2Y6,43.766,-79.5456,325410,Pharmaceutical & Medicine Mfg.,409,,Michael Taniguchi,416-749-9300,Associate Director EHS Programs,647-262-6903,,,23,Nitrogen Oxides (NOx),603,0,0,603,0,0,0,0
400,446,D Crupi And Sons Limited Passmore Ave Asphalt Plant,85 Passmore Ave,M1V 4S9,43.8201,-79.2973,324121,Asphalt Paving Mixture & Block Mfg.,4,,Domenic Passalacqua,416-291-1986,Plant Manager,416-291-1986,,416-291-3252,23,Nitrogen Oxides (NOx),3731,0,0,3731,0,0,0,0
401,25032,Tayco Panelink Ltd,400 Norris Glen Road,M9C 1H5,43.6233,-79.5553,337214,Office Furniture (except Wood) Mfg.,160,,SUNNY SINGH,416-252-8000,PLANT MANAGER,416-252-8000,,416-252-4467,25,Volatile Organic Compounds (VOCs) Total,0,0,1800,1800,0,0,0,0
402,25149,Express Auto Collision,310 Greenwood Avenue,M4L 2R8,43.6741,-79.3295,811121,"Automotive Body, Paint & Interior R&M",5,,Sofie DialynasVatsis,416-465-2316,Office,416-465-2316,,416-465-3347,24,Particulate Matter 2.5 (PM2.5),211,0,0,32,0,0,0,0
403,25150,Olympic Coaters Ltd,354 Humberline Dr,M9W 5S3,43.7444,-79.6216,325999,All Other Misc. Chemical Product Mfg.,40,,Robert P. Edwards,416-213-1705,,416-213-1706,,,18,Nickel and its compounds,0,49524,0,0,0,0,0,0
404,25249,CNC Metal Fabrication Inc,53 Saint Regis Cres S,M3J 1Y6,43.7551,-79.4859,332999,All Other Misc. Fabricated Metal Product Mfg.,24,,CHANDRAKANT PATEL,416-398-3727,Q A MANAGER,416-398-3727,,,9,"Chromium, Non-Hexavalent and its compounds",0,122,0,0,0,0,0,0
405,25332,Disco Organics Processing Facility,120 Disco Road,M9W 1M4,43.7005,-79.6026,562210,Waste Treatment & Disposal,15,,Andrew Agbanti,416-392-1487,Manage Resource Recovery,416-392-4687,,,24,Particulate Matter 2.5 (PM2.5),3923,0,0,3923,0,0,0,0
406,466,The International Group Inc,50 Salome Drive,M1S 2A8,43.7846,-79.2748,324190,Other Petroleum & Coal Products Mfg.,150,,Izaura Araujo,416-293-4151,EHS Manager,416-571-1422,,,25,Volatile Organic Compounds (VOCs) Total,1652,45856,0,47508,0,0,0,0
407,477,DJ Manufacturing Co Ltd,140 The East Mall,M8Z 5V5,43.6231,-79.5498,321919,Other Millwork,25,,Liza Lopez,416-236-7366,Controller,416-236-7366,226,416-236-7504,24,Particulate Matter 2.5 (PM2.5),626,0,0,626,0,0,0,0
408,483,Toronto Transit Commission Wilson Complex,160 Transit Road,M3H 1T8,43.7388,-79.4526,485110,Urban Transit Systems,329,http://www3.ttc.ca,Shaun DeSouza,416-393-3284,Manager Environment,416-554-1299,,,25,Volatile Organic Compounds (VOCs) Total,0,0,215,215,0,0,0,0
409,494,Estee Lauder Cosmetics Ltd,161 Commander Blvd,M1S 3K9,43.7957,-79.269,325620,Toilet Preparation Mfg.,500,,Kim Oleszczyk,416-297-2949,Director EHS,365-340-2507,,,25,Volatile Organic Compounds (VOCs) Total,150,12580,0,2959,0,0,0,0
410,495,DOW CANADA MATERIAL SCIENCES ULC,2 Manse Road,M1E 3T9,43.7599,-79.1717,325510,Paint & Coating Mfg.,80,,Steven McConnell,416-284-4711,Site Leader,289-685-5481,,,24,Particulate Matter 2.5 (PM2.5),54,0,0,54,0,0,0,0
411,25351,CanaDatum Moulds Ltd,55 Goldthorne Avenue,M8Z 5S7,43.6156,-79.5138,333511,Industrial Mould Mfg.,105,,Colleen Musalem,416-252-1212,VP Finance,416-252-1212,,416-252-5377,9,"Chromium, Non-Hexavalent and its compounds",0,608,0,0,0,0,0,0
412,25360,Etobicoke Ironworks Ltd,141 Rivalda Rd,M9M 2M6,43.7449,-79.5365,331210,Iron & Steel Pipes & Tubes Mfg.,175,,Ron Chafee,416-742-7111,CEO,416-742-7111,,416-742-2737,16,Manganese and its compounds,0,93,16,18,0,0,0,0
413,25360,Etobicoke Ironworks Ltd,141 Rivalda Rd,M9M 2M6,43.7449,-79.5365,331210,Iron & Steel Pipes & Tubes Mfg.,175,,Ron Chafee,416-742-7111,CEO,416-742-7111,,416-742-2737,9,"Chromium, Non-Hexavalent and its compounds",0,508,0,82,0,0,0,0
414,25388,Crystal Claire Cosmetics,165 Milner Ave,M1S 4G7,43.7854,-79.2422,325620,Toilet Preparation Mfg.,600,,Junsheng Chen,416-421-1882,Director of Quality Assurance,416-421-1882,,,25,Volatile Organic Compounds (VOCs) Total,0,12604,6992,16987,0,0,0,0
415,25437,GP Millwork,191 Finchdene Square,M1X 1E3,43.8198,-79.2332,321919,Other Millwork,50,,Peter Diamond,416-298-4204,Vice President,416-298-4204,,,24,Particulate Matter 2.5 (PM2.5),671,0,0,671,0,0,0,0
416,25469,Brother Dry Clenners,83 Pelham Ave,M6N 1A5,43.6676,-79.4575,812320,Dry Cleaning & Laundry Serv. (exc. Coin-Op.),10,,Hong Tao Hu,416-651-8222,Manager,416-627-8278,,,14,Formaldehyde,0,0,0,0,0,0,0,0
417,25473,Supreme Food Equipment Co Ltd,31 Melford Dr,M1B 2G6,43.8094,-79.238,331222,Steel Wire Drawing,15,,Sunny Tsang,416-299-6128,Manger,416-299-6128,,416-299-6095,18,Nickel and its compounds,0,100,0,85,0,0,0,0
418,25499,Arts Metal Finish Ltd,555 Canarctic Dr,M3J 2P9,43.7769,-79.4867,332810,"Coating, Engraving & Heat Treating Activities",20,,Paul Sanclimenti,416-661-0605,Operations Manager,416-661-0605,,,23,Nitrogen Oxides (NOx),582,0,0,582,0,0,0,0
419,508,Portlands Energy Centre,470 Unwin Avenue,M4M 3B9,43.6475,-79.3299,221112,Fossil-Fuel Electric Power Generation,30,,Kevin Dick,416-462-8683,General Manager,416-462-8680,,416-462-1863,22,Polycyclic Aromatic Hydrocarbons (PAHs),31,0,0,0,0,0,0,0
420,511,Dextran Products Limited,421 Comstock Road,M1L 2H5,43.7232,-79.2773,325410,Pharmaceutical & Medicine Mfg.,20,,George Usher,416-755-2231,President,416-755-2231,,,23,Nitrogen Oxides (NOx),4353,0,0,4353,0,0,0,0
421,518,Gazzola Paving Limited,345 Attwell Drive,M9W 5C2,43.7042,-79.5991,324121,Asphalt Paving Mixture & Block Mfg.,8,,William Orpin,416-675-7007,Project Manager,416-675-7007,,416-675-4371,25,Volatile Organic Compounds (VOCs) Total,8283,0,3600,8283,0,0,0,0
422,519,Four Star Metal Finishing Ltd,1162 Barmac Drive,M9L 1X5,43.7668,-79.5543,332810,"Coating, Engraving & Heat Treating Activities",41,,Branko Lebar,416-745-1742,President,416-745-1742,,416-745-2800,8,"Chromium, Hexavalent and its compounds",0,220,0,0,0,0,0,0
423,519,Four Star Metal Finishing Ltd,1162 Barmac Drive,M9L 1X5,43.7668,-79.5543,332810,"Coating, Engraving & Heat Treating Activities",41,,Branko Lebar,416-745-1742,President,416-745-1742,,416-745-2800,23,Nitrogen Oxides (NOx),1232,0,0,1232,0,0,0,0
